timestamp_ms;gnss_time;lat;lon;alt_gps;gnss_fix;gnss_sats;alt_bar;pressure;temperature;pos_n;pos_e;pos_d;vel_n;vel_e;vel_d;acc_n;acc_e;acc_d;acc_x_raw;acc_y_raw;acc_z_raw;gyro_x;gyro_y;gyro_z;mag_x;mag_y;mag_z;roll;pitch;yaw;flight_state;imu_valid;ekf_valid;bar_valid;attitude_reliable
25489;N/A;0;0;0;0;0;463,39;958,82;31,04;0;0;0;0;0;0;1,7627;0,0571;7,4108;0,2261;-0,0659;0,9531;-1,6945;-1,4165;-2,6223;-127,9734;9,3407;62,1313;-3,97;-13,4;-153,59;1;;;;
25529;N/A;0;0;0;0;0;463,39;958,82;31,04;0;0;0;0;0;0;1,7087;0,0571;7,3983;0,2065;-0,0522;0,9448;0,0128;-0,136;-1,2198;-128,5557;8,6099;62,614;-4,04;-13,43;-153,98;1;;;;
25628;N/A;0;0;0;0;0;463,39;958,82;31,04;0;0;0;0;0;0;1,7388;0,0571;7,4123;0,2178;-0,0444;0,9512;0,1348;-3,0018;0,2436;-129,2653;8,0377;62,729;-4,13;-13,46;-154,5;1;;;;
25728;N/A;0;0;0;0;0;463,39;958,82;31,04;0;0;0;0;0;0;1,7456;0,0571;7,4177;0,2271;-0,0532;0,9473;-1,6335;-1,7823;3,1704;-129,1065;7,398;61,8057;-4,19;-13,48;-154,98;1;;;;
25828;N/A;0;0;0;0;0;463,39;958,82;31,04;0;0;0;0;0;0;1,702;0,0571;7,4555;0,2046;-0,0552;0,9541;1,7201;0,3518;-3,4149;-128,3959;8,7527;61,9849;-4,28;-13,44;-155,25;1;;;;
25966;N/A;0;0;0;0;0;463,69;958,78;31,05;0;0;0;0;0;0;1,6989;0,0571;7,399;0,207;-0,0537;0,9409;-2,0604;0,9616;-5,4271;-128,8214;8,5659;62,1127;-4,35;-13,34;-155,73;1;;;;
26066;N/A;0;0;0;0;0;463,69;958,78;31,05;0;0;0;0;0;0;1,7245;0,0571;7,4362;0,2207;-0,0571;0,9585;0,6226;1,8152;0,4875;-128,854;8,2645;63,1096;-4,44;-13,27;-156,31;1;;;;
26166;N/A;0;0;0;0;0;463,69;958,78;31,05;0;0;0;0;0;0;1,6915;0,0571;7,3864;0,2158;-0,043;0,9282;-1,1457;0,7177;2,3168;-129,5198;8,3551;61,9934;-4,56;-13,2;-156,79;1;;;;
26266;N/A;0;0;0;0;0;463,69;958,78;31,05;0;0;0;0;0;0;1,7291;0,0571;7,3978;0,2368;-0,0488;0,9551;0,1348;0,5957;-5,4881;-128,9823;7,6406;62,4477;-4,65;-13,18;-157,14;1;;;;
26366;N/A;0;0;0;0;0;463,69;958,78;31,05;0;0;0;0;0;0;1,6972;0,0571;7,3718;0,2129;-0,0493;0,9443;-1,1457;1,5713;2,0729;-128,7023;7,6447;62,4406;-4,64;-13,17;-157,63;1;;;;
26466;N/A;0;0;0;0;0;463,3;958,83;31,04;0;0;0;0;0;0;1,7203;0,0571;7,3868;0,2261;-0,0615;0,9502;0,0738;-1,0506;-0,0613;-129,2358;8,7404;62,0062;-4,64;-13,15;-158,11;1;;;;
26566;N/A;0;0;0;0;0;463,3;958,83;31,04;0;0;0;0;0;0;1,7642;0,0571;7,4032;0,2344;-0,0649;0,9541;-0,8409;0,7177;2,9265;-129,2459;9,1617;62,5346;-4,66;-13,12;-158,48;1;;;;
26666;N/A;0;0;0;0;0;463,3;958,83;31,04;0;0;0;0;0;0;1,7854;0,0571;7,4169;0,2329;-0,0586;0,9561;-1,8774;-0,075;1,829;-129,0953;7,7593;61,5714;-4,73;-13,13;-158,75;1;;;;
26766;N/A;0;0;0;0;0;463,3;958,83;31,04;0;0;0;0;0;0;1,7596;0,0571;7,4037;0,2295;-0,0518;0,9482;-0,353;1,9982;1,2802;-128,9517;9,1258;62,0191;-4,85;-13,15;-158,93;1;;;;
26866;N/A;0;0;0;0;0;463,3;958,83;31,04;0;0;0;0;0;0;1,7295;0,0571;7,3869;0,2212;-0,0625;0,9468;1,2323;0,1689;-2,0735;-129,6471;8,5137;61,6256;-4,95;-13,12;-159,12;1;;;;
26966;N/A;0;0;0;0;0;463,52;958,8;31,04;0;0;0;0;0;0;1,7013;0,0571;7,4003;0,2119;-0,0532;0,9512;-0,536;-0,3189;0,8534;-129,2358;8,7404;62,0062;-4,95;-13,09;-159,43;1;;;;
27066;N/A;0;0;0;0;0;463,52;958,8;31,04;0;0;0;0;0;0;1,755;0,0571;7,3971;0,2368;-0,0503;0,9478;1,0494;-0,5018;-0,2442;-129,528;7,5925;61,9535;-4,95;-13,05;-159,73;1;;;;
27166;N/A;0;0;0;0;0;463,52;958,8;31,04;0;0;0;0;0;0;1,7171;0,0571;7,4085;0,2119;-0,0625;0,9453;0,6226;-1,8433;1,3412;-129,8191;7,2271;62,1948;-4,97;-13,03;-159,98;1;;;;
27266;N/A;0;0;0;0;0;463,52;958,8;31,04;0;0;0;0;0;0;1,7727;0,0571;7,4375;0,2378;-0,0596;0,9502;-2,1213;0,047;-2,1345;-129,9514;8,9708;62,6695;-4,99;-13,04;-160,18;1;;;;
27366;N/A;0;0;0;0;0;463,52;958,8;31,04;0;0;0;0;0;0;1,7418;0,0571;7,4576;0,2153;-0,0547;0,9546;-0,9628;-0,7457;0,9143;-129,5381;8,0137;62,4819;-4,98;-13,04;-160,49;1;;;;
27468;N/A;0;0;0;0;0;463,39;958,82;31,04;0;0;0;0;0;0;1,7717;0,0571;7,4613;0,2329;-0,0684;0,9551;-1,7555;0,4128;3,4753;-129,3966;7,8151;62,3412;-4,96;-13,06;-160,84;1;;;;
27645;N/A;0;0;0;0;0;463,39;958,82;31,04;0;0;0;0;0;0;1,7322;0,0571;7,4553;0,2124;-0,042;0,9521;1,2323;2,2421;2,0729;-128,5161;8,8914;61,3629;-5;-13,05;-161,28;1;;;;
27745;N/A;0;0;0;0;0;463,39;958,82;31,04;0;0;0;0;0;0;1,7726;0,0571;7,4097;0,2305;-0,0581;0,9395;-1,3287;-0,014;2,4997;-128,9782;8,0219;62,4676;-5,05;-13;-161,41;1;;;;
27845;N/A;0;0;0;0;0;463,39;958,82;31,04;0;0;0;0;0;0;1,7211;0,0571;7,451;0,2158;-0,0601;0,9648;0,3177;0,5957;0,3046;-128,1241;7,9942;61,9379;-5,15;-12,96;-161,54;1;;;;
27966;N/A;0;0;0;0;0;463,3;958,83;31,04;0;0;0;0;0;0;1,7133;0,0571;7,4198;0,2104;-0,0503;0,9419;0,1957;-1,3555;-0,0613;-129,1085;8,5818;62,374;-5,22;-12,9;-161,74;1;;;;
28066;N/A;0;0;0;0;0;463,3;958,83;31,04;0;0;0;0;0;0;1,7304;0,0571;7,3886;0,2217;-0,0454;0,9478;1,8421;-0,197;3,2924;-128,6688;8,7286;61,7378;-5,22;-12,89;-161,9;1;;;;
28166;N/A;0;0;0;0;0;463,3;958,83;31,04;0;0;0;0;0;0;1,7262;0,0571;7,4497;0,2188;-0,0693;0,958;-2,3043;0,9006;3,9631;-129,3742;8,5378;61,8727;-5,17;-12,9;-162,03;1;;;;
28266;N/A;0;0;0;0;0;463,3;958,83;31,04;0;0;0;0;0;0;1,6794;0,0571;7,2788;0,2046;-0,0894;0,9048;-2,3043;0,7787;1,1582;-128,5374;8,9513;62,1255;-5,24;-12,89;-162;1;;;;
28366;N/A;0;0;0;0;0;463,3;958,83;31,04;0;0;0;0;0;0;1,6479;0,0571;7,3175;0,2119;-0,042;0,9375;-0,2921;-0,5628;-0,671;-129,1055;8,1805;62,0998;-5,45;-12,84;-161,96;1;;;;
28466;N/A;0;0;0;0;0;462,89;958,87;31,04;0;0;0;0;0;0;1,6398;0,0571;7,3546;0,2104;-0,0581;0,9521;-1,6335;-0,6848;-2,0125;-129,1207;7,4379;62,3141;-5,61;-12,8;-162,08;1;;;;
28566;N/A;0;0;0;0;0;462,89;958,87;31,04;0;0;0;0;0;0;1,7823;0,0571;7,4247;0,2495;-0,0283;0,9531;0,3177;-1,3555;-2,6832;-128,6636;9,8925;62,0519;-5,66;-12,79;-162,32;1;;;;
28666;N/A;0;0;0;0;0;462,89;958,87;31,04;0;0;0;0;0;0;1,6956;0,0571;7,2808;0,2031;-0,0918;0,9038;0,0128;1,6323;2,8655;-129,2317;9,1217;62,0262;-5,66;-12,81;-162,49;1;;;;
28766;N/A;0;0;0;0;0;462,89;958,87;31,04;0;0;0;0;0;0;1,6673;0,0571;7,4377;0,2192;-0,0933;0,9746;-1,6335;0,4128;6,0363;-128,6718;9,1299;62,012;-5,72;-12,76;-162,44;1;;;;
28866;N/A;0;0;0;0;0;462,89;958,87;31,04;0;0;0;0;0;0;1,7666;0,0571;7,507;0,2222;-0,0708;0,9478;-0,414;-1,4774;-0,0003;-129,3803;9,3403;62,4211;-5,86;-12,69;-162,32;1;;;;
28966;N/A;0;0;0;0;0;463,79;958,77;31,04;0;0;0;0;0;0;1,7646;0,0571;7,4858;0,2246;-0,064;0,9517;0,1348;-0,136;0,6095;-129,6867;8,2323;62,8767;-6;-12,66;-162,25;1;;;;
29066;N/A;0;0;0;0;0;463,79;958,77;31,04;0;0;0;0;0;0;1,7353;0,0571;7,4546;0,2227;-0,0586;0,9517;-0,9018;-0,9896;0,6095;-129,3915;8,979;62,6553;-6,06;-12,68;-162,32;1;;;;
29166;N/A;0;0;0;0;0;463,79;958,77;31,04;0;0;0;0;0;0;1,7457;0,0571;7,4369;0,2393;-0,0625;0,9399;-1,2067;1,5104;2,0119;-128,9386;8,3033;61,2165;-6,03;-12,69;-162,57;1;;;;
29266;N/A;0;0;0;0;0;463,79;958,77;31,04;0;0;0;0;0;0;1,7601;0,0571;7,4115;0,2339;-0,0757;0,9414;-2,1213;-0,8677;2,0119;-128,689;9,5711;62,7946;-5,99;-12,64;-162,81;1;;;;
29366;N/A;0;0;0;0;0;463,79;958,77;31,04;0;0;0;0;0;0;1,7913;0,0571;7,3924;0,2339;-0,0654;0,9453;-1,3896;-2,3311;0,2436;-129,1115;8,983;62,6482;-5,99;-12,66;-162,95;1;;;;
29466;N/A;0;0;0;0;0;463,86;958,76;31,04;0;0;0;0;0;0;1,7761;0,0571;7,4171;0,2227;-0,0522;0,9556;-1,1457;-1,4774;-0,0613;-127,6752;9,6862;61,6357;-6,03;-12,79;-163,1;1;;;;
29566;N/A;0;0;0;0;0;463,86;958,76;31,04;0;0;0;0;0;0;1,7565;0,0571;7,4519;0,2266;-0,0615;0,9595;-1,0238;-1,2945;1,707;-128,1261;9,178;62,5062;-6,08;-12,92;-163,23;1;;;;
29745;N/A;0;0;0;0;0;463,86;958,76;31,04;0;0;0;0;0;0;1,7129;0,0571;7,43;0,2095;-0,0327;0,9458;-1,5726;0,9616;-2,8662;-128,3878;9,5153;62,0248;-6,17;-13,08;-163,44;1;;;;
29845;N/A;0;0;0;0;0;463,86;958,76;31,04;0;0;0;0;0;0;1,7305;0,0571;7,395;0,2266;-0,0449;0,9414;0,7445;-2,636;3,6582;-129,8252;8,0296;62,7432;-6,19;-13,06;-163,6;1;;;;
29966;N/A;0;0;0;0;0;463,79;958,77;31,06;0;0;0;0;0;0;1,7126;0,0571;7,5187;0,2192;-0,0444;0,9688;-0,597;0,6567;-2,9271;-128,8225;7,7834;61,8185;-6,17;-13,03;-163,74;1;;;;
30066;N/A;0;0;0;0;0;463,79;958,77;31,06;0;0;0;0;0;0;1,7414;0,0571;7,4622;0,23;-0,0503;0,9512;-1,8165;-0,6848;-2,1954;-128,4213;8,4313;62,7276;-6,12;-13,01;-163,94;1;;;;
30166;N/A;0;0;0;0;0;463,79;958,77;31,06;0;0;0;0;0;0;1,7117;0,0571;7,4632;0,2168;-0,0518;0,9507;-1,1457;0,6567;-1,8905;-128,6911;8,006;62,2063;-6,06;-12,99;-164,29;1;;;;
30266;N/A;0;0;0;0;0;463,79;958,77;31,06;0;0;0;0;0;0;1,7646;0,0571;7,4324;0,2339;-0,0537;0,9482;1,1104;-0,3189;-0,5491;-129,25;8,7804;62,5147;-6,02;-12,96;-164,72;1;;;;
30366;N/A;0;0;0;0;0;463,79;958,77;31,06;0;0;0;0;0;0;1,7209;0,0571;7,3939;0,2144;-0,0542;0,9399;-0,597;-0,6238;6,4021;-128,9487;8,7246;61,7449;-5,98;-12,9;-164,98;1;;;;
30466;N/A;0;0;0;0;0;463,15;958,84;31,06;0;0;0;0;0;0;1,6895;0,0571;7,3952;0,21;-0,0713;0,9478;-1,0238;-1,9043;-3,9027;-128,3959;8,7527;61,9849;-5,97;-12,85;-165,01;1;;;;
30566;N/A;0;0;0;0;0;463,15;958,84;31,06;0;0;0;0;0;0;1,7428;0,0571;7,4241;0,2261;-0,0376;0,9526;-1,8165;1,1445;-1,4027;-128,8357;8,6058;62,6211;-5,95;-12,84;-165,1;1;;;;
30666;N/A;0;0;0;0;0;463,15;958,84;31,06;0;0;0;0;0;0;1,7602;0,0571;7,4336;0,2334;-0,064;0,9531;0,7445;-1,2945;2,0729;-129,3884;8,5777;62,3811;-5,89;-12,83;-165,37;1;;;;
30766;N/A;0;0;0;0;0;463,15;958,84;31,06;0;0;0;0;0;0;1,7247;0,0571;7,4437;0,2119;-0,0601;0,958;0,0738;0,2909;-0,4271;-128,967;8,3832;62,2334;-5,82;-12,84;-165,54;1;;;;
30866;N/A;0;0;0;0;0;463,15;958,84;31,06;0;0;0;0;0;0;1,763;0,0571;7,4572;0,2261;-0,04;0,9507;-0,8409;0,9006;-2,3174;-129,8099;8,7722;62,5289;-5,76;-12,83;-165,68;1;;;;
30966;N/A;0;0;0;0;0;463,69;958,78;31,06;0;0;0;0;0;0;1,7233;0,0571;7,4437;0,2114;-0,0352;0,9492;-2,1823;0,4738;3,2314;-128,9864;7,2593;62,4277;-5,72;-12,77;-165,92;1;;;;
31066;N/A;0;0;0;0;0;463,69;958,78;31,06;0;0;0;0;0;0;1,68;0,0571;7,427;0,2114;-0,0596;0,9473;-0,9018;-0,197;0,1826;-128,9711;8,0019;62,2134;-5,73;-12,71;-166,07;1;;;;
31166;N/A;0;0;0;0;0;463,69;958,78;31,06;0;0;0;0;0;0;1,7782;0,0571;7,4213;0,2407;-0,0469;0,9443;0,0128;1,6933;-0,793;-128,6901;8,7885;62,5005;-5,72;-12,72;-166,21;1;;;;
31266;N/A;0;0;0;0;0;463,69;958,78;31,06;0;0;0;0;0;0;1,8141;0,0571;7,3977;0,2314;-0,0605;0,9492;-1,9384;0,1689;1,9509;-128,4;8,3714;61,9649;-5,61;-12,74;-166,44;1;;;;
31366;N/A;0;0;0;0;0;463,69;958,78;31,06;0;0;0;0;0;0;1,7894;0,0571;7,4058;0,228;-0,0615;0,9556;-0,9628;1,0835;1,8899;-128,8398;8,2245;62,6012;-5,58;-12,76;-166,56;1;;;;
31466;N/A;0;0;0;0;0;463,86;958,76;31,05;0;0;0;0;0;0;1,7648;0,0571;7,4307;0,2192;-0,0483;0,957;0,3787;-0,9287;-3,171;-129,5056;8,3152;61,4849;-5,6;-12,77;-166,62;1;;;;
31566;N/A;0;0;0;0;0;463,86;958,76;31,05;0;0;0;0;0;0;1,7983;0,0571;7,4195;0,2324;-0,0459;0,9482;-0,9018;2,6689;2,0119;-129,1136;7,4179;62,0599;-5,56;-12,78;-166,81;1;;;;
31666;N/A;0;0;0;0;0;463,86;958,76;31,05;0;0;0;0;0;0;1,7571;0,0571;7,4106;0,2139;-0,0464;0,9478;-0,536;0,8396;-0,9149;-128,967;8,3832;62,2334;-5,49;-12,74;-167,05;1;;;;
31854;N/A;0;0;0;0;0;463,86;958,76;31,05;0;0;0;0;0;0;1,7249;0,0571;7,3939;0,2134;-0,0527;0,9434;-0,475;1,7543;0,3655;-128,8021;9,6898;61,9184;-5,41;-12,6;-167,44;1;;;;
31966;N/A;0;0;0;0;0;463,69;958,78;31,06;0;0;0;0;0;0;1,7151;0,0571;7,4332;0,2241;-0,0537;0,958;-0,7189;-0,6238;-0,2442;-127,4105;8,9476;61,8429;-5,38;-12,46;-167,59;1;;;;
32066;N/A;0;0;0;0;0;463,69;958,78;31,06;0;0;0;0;0;0;1,7394;0,0571;7,4324;0,2251;-0,0488;0,9512;-1,2677;-0,014;1,829;-129,1177;7,0367;62,04;-5,4;-12,42;-167,68;1;;;;
32166;N/A;0;0;0;0;0;463,69;958,78;31,06;0;0;0;0;0;0;1,6831;0,0571;7,4445;0,2095;-0,0483;0,9517;-0,8409;0,3518;-3,1101;-129,2287;8,7205;61,752;-5,45;-12,48;-167,77;1;;;;
32266;N/A;0;0;0;0;0;463,69;958,78;31,06;0;0;0;0;0;0;1,7253;0,0571;7,4577;0,228;-0,0479;0,96;-0,414;-2,453;-0,0613;-128,2829;8,6339;62,8611;-5,4;-12,55;-168,03;1;;;;
32366;N/A;0;0;0;0;0;463,69;958,78;31,06;0;0;0;0;0;0;1,7512;0,0571;7,42;0,2192;-0,0649;0,9463;0,9884;0,9616;1,2192;-129,9656;9,0107;63,178;-5,36;-12,64;-168,28;1;;;;
32466;N/A;0;0;0;0;0;463,52;958,8;31,06;0;0;0;0;0;0;1,7581;0,0571;7,4191;0,2261;-0,0684;0,9497;-0,597;-1,2335;1,2802;-129,1298;8,6417;63,1367;-5,34;-12,7;-168,41;1;;;;
32566;N/A;0;0;0;0;0;463,52;958,8;31,06;0;0;0;0;0;0;1,7843;0,0571;7,3995;0,2373;-0,0576;0,9468;-0,2311;-0,2579;-3,9027;-128,8245;8,9672;62,3869;-5,31;-12,73;-168,49;1;;;;
32666;N/A;0;0;0;0;0;463,52;958,8;31,06;0;0;0;0;0;0;1,827;0,0571;7,4281;0,2427;-0,0537;0,9502;-0,475;-2,2091;0,9753;-129,0872;8,5219;61,6114;-5,24;-12,78;-168,73;1;;;;
32766;N/A;0;0;0;0;0;463,52;958,8;31,06;0;0;0;0;0;0;1,735;0,0571;7,4294;0,2104;-0,0581;0,9507;-0,7799;1,8152;0,4875;-128,5609;7,4461;62,2999;-5,22;-12,86;-168,89;1;;;;
32866;N/A;0;0;0;0;0;463,52;958,8;31,06;0;0;0;0;0;0;1,7459;0,0571;7,3932;0,2295;-0,0625;0,9487;1,1713;-1,4165;0,4875;-128,5333;9,3326;62,1455;-5,27;-12,88;-168,91;1;;;;
32966;N/A;0;0;0;0;0;463,79;958,77;31,06;0;0;0;0;0;0;1,7544;0,0571;7,3989;0,2261;-0,0571;0,9492;-1,6335;-0,6848;-0,4271;-128,2463;9,3167;61,8842;-5,3;-12,91;-168,97;1;;;;
33066;N/A;0;0;0;0;0;463,79;958,77;31,06;0;0;0;0;0;0;1,7224;0,0571;7,4189;0,2183;-0,0537;0,9492;-1,0238;-0,2579;-0,0003;-129,3854;8,1764;62,107;-5,32;-12,97;-169,04;1;;;;
33166;N/A;0;0;0;0;0;463,79;958,77;31,06;0;0;0;0;0;0;1,7158;0,0571;7,4583;0,2183;-0,0625;0,96;0,2567;-1,9043;0,7924;-129,2409;7,5766;61,6921;-5,36;-13,05;-169,09;1;;;;
33266;N/A;0;0;0;0;0;463,79;958,77;31,06;0;0;0;0;0;0;1,7476;0,0571;7,438;0,2329;-0,0527;0,9551;-0,8409;-1,7213;-0,4271;-128,7135;7,2833;62,6748;-5,37;-13,15;-169,1;1;;;;
33366;N/A;0;0;0;0;0;463,79;958,77;31,06;0;0;0;0;0;0;1,7527;0,0571;7,4448;0,2222;-0,0591;0,9512;0,0128;0,9616;-1,1588;-128,5415;8,57;62,1056;-5,37;-13,22;-169,13;1;;;;
33466;N/A;0;0;0;0;0;463,52;958,8;31,07;0;0;0;0;0;0;1,7218;0,0571;7,4437;0,2134;-0,0679;0,9521;-0,353;-0,4409;0,9143;-129,3966;7,8151;62,3412;-5,38;-13,24;-169,22;1;;;;
33566;N/A;0;0;0;0;0;463,52;958,8;31,07;0;0;0;0;0;0;1,7241;0,0571;7,4267;0,2212;-0,0547;0,9458;0,0128;-1,7213;-1,6466;-129,9412;8,5496;62,1411;-5,38;-13,21;-169,32;1;;;;
33666;N/A;0;0;0;0;0;463,52;958,8;31,07;0;0;0;0;0;0;1,6883;0,0571;7,4312;0,2056;-0,0527;0,9478;-2,5482;0,8396;-1,5857;-128,6931;9,1898;62,7746;-5,34;-13,16;-169,45;1;;;;
33766;N/A;0;0;0;0;0;463,52;958,8;31,07;0;0;0;0;0;0;1,6937;0,0571;7,4255;0,2134;-0,0503;0,9502;-3,2799;-1,1116;1,4631;-129,2063;9,4431;61,2835;-5,3;-13,09;-169,59;1;;;;
34059;N/A;0;0;0;0;0;463,69;958,78;31,07;0;0;0;0;0;0;1,7674;0,0571;7,4134;0,2402;-0,0474;0,9521;-1,5116;2,1201;0,9143;-128,6901;8,7885;62,5005;-5,66;-13,07;-169,66;1;;;;
34107;N/A;0;0;0;0;0;463,69;958,78;31,07;0;0;0;0;0;0;1,7479;0,0571;7,4303;0,2188;-0,0356;0,9551;-2,1823;-0,3799;-2,3784;-128,6799;8,3673;61,972;-5,74;-13,05;-169,65;1;;;;
34207;N/A;0;0;0;0;0;463,69;958,78;31,07;0;0;0;0;0;0;1,7546;0,0571;7,4057;0,2207;-0,0581;0,9453;0,4396;-1,2945;0,1826;-129,0872;8,5219;61,6114;-5,85;-13,07;-169,73;1;;;;
34307;N/A;0;0;0;0;0;463,69;958,78;31,07;0;0;0;0;0;0;1,754;0,0571;7,4216;0,2231;-0,0537;0,9497;-0,9628;2,547;-1,0369;-130,0848;7,1831;61,6935;-5,87;-13,15;-169,8;1;;;;
34407;N/A;0;0;0;0;0;463,69;958,78;31,07;0;0;0;0;0;0;1,7742;0,0571;7,4031;0,2339;-0,0591;0,9473;0,3787;-1,1116;-0,1223;-129,3773;8,939;62,1469;-5,84;-13,12;-169,89;1;;;;
34559;N/A;0;0;0;0;0;463,69;958,78;31,08;0;0;0;0;0;0;1,7525;0,0571;7,4179;0,2266;-0,0464;0,9526;-0,6579;-0,5628;0,6095;-128,9558;8,7445;61,9991;-5,81;-13,07;-170,01;1;;;;
34607;N/A;0;0;0;0;0;463,69;958,78;31,08;0;0;0;0;0;0;1,7518;0,0571;7,4191;0,2236;-0,0649;0,9502;0,3787;-3,1238;-0,3662;-128,2555;7,7716;61,5501;-5,79;-13,07;-170,11;1;;;;
34707;N/A;0;0;0;0;0;463,69;958,78;31,08;0;0;0;0;0;0;1,746;0,0571;7,4858;0,2271;-0,0566;0,9512;-0,0482;-1,0506;8,0485;-129,0932;9,3244;62,1597;-5,74;-13,14;-170,25;1;;;;
34807;N/A;0;0;0;0;0;463,69;958,78;31,08;0;0;0;0;0;0;1,7768;0,0571;7,363;0,2515;-0,0723;0,9141;-0,9018;1,6933;5,2436;-128,8428;8,6258;62,8754;-5,67;-13,21;-170,37;1;;;;
34907;N/A;0;0;0;0;0;463,69;958,78;31,08;0;0;0;0;0;0;1,7773;0,0571;7,4079;0,2168;-0,063;0,9487;-0,8409;0,4738;-1,2808;-127,9928;8,2168;62,3256;-5,62;-13,21;-170,42;1;;;;
35059;N/A;0;0;0;0;0;463,79;958,77;31,08;0;0;0;0;0;0;1,7319;0,0571;7,3408;0,2095;-0,0425;0,9253;-1,8165;1,5713;1,768;-128,2839;7,8514;62,567;-5,57;-13,19;-170,45;1;;;;
35107;N/A;0;0;0;0;0;463,79;958,77;31,08;0;0;0;0;0;0;1,7561;0,0571;7,3508;0,23;-0,0605;0,9453;-0,0482;-0,075;0,2436;-129,2256;8,3192;61,4778;-5,54;-13,13;-170,44;1;;;;
35207;N/A;0;0;0;0;0;463,79;958,77;31,08;0;0;0;0;0;0;1,7718;0,0571;7,4138;0,2231;-0,0581;0,9565;-0,353;-1,1726;-0,9149;-128,8367;7,8233;62,327;-5,5;-13,06;-170,44;1;;;;
35307;N/A;0;0;0;0;0;463,79;958,77;31,08;0;0;0;0;0;0;1,818;0,0571;7,4125;0,2314;-0,0708;0,9463;-0,1091;0,7177;0,9753;-129,2276;9,503;62,0462;-5,46;-13,09;-170,46;1;;;;
35407;N/A;0;0;0;0;0;463,79;958,77;31,08;0;0;0;0;0;0;1,7865;0,0571;7,4333;0,2339;-0,0503;0,958;-0,1091;1,2665;1,5851;-129,9301;8,9109;61,9069;-5,45;-13,14;-170,47;1;;;;
35559;N/A;0;0;0;0;0;463,69;958,78;31,09;0;0;0;0;0;0;1,7627;0,0571;7,4527;0,2222;-0,0381;0,9604;-1,0238;-2,0262;0,4265;-129,2418;9,543;62,5546;-5,41;-13,12;-170,5;1;;;;
35607;N/A;0;0;0;0;0;463,69;958,78;31,09;0;0;0;0;0;0;1,7432;0,0571;7,4521;0,2183;-0,0557;0,9531;-0,597;1,5713;2,0729;-128,9629;8,7645;62,2533;-5,38;-13,11;-170,54;1;;;;
35707;N/A;0;0;0;0;0;463,69;958,78;31,09;0;0;0;0;0;0;1,7281;0,0571;7,4518;0,2207;-0,0679;0,9468;-1,5116;0,1079;0,6095;-128,6871;8,3873;62,2263;-5,35;-13,06;-170,55;1;;;;
35807;N/A;0;0;0;0;0;463,69;958,78;31,09;0;0;0;0;0;0;1,7332;0,0571;7,4654;0,2314;-0,062;0,9497;-0,9628;-0,6238;0,1216;-129,2317;9,1217;62,0262;-5,35;-13,02;-170,55;1;;;;
35907;N/A;0;0;0;0;0;463,69;958,78;31,09;0;0;0;0;0;0;1,738;0,0571;7,4404;0,2158;-0,0518;0,9458;-0,597;1,7543;-0,1223;-128,2626;7,7915;61,8043;-5,4;-13,03;-170,55;1;;;;
36170;N/A;0;0;0;0;0;463,86;958,76;31,09;0;0;0;0;0;0;1,7787;0,0571;7,4529;0,2329;-0,0571;0,9526;-0,9018;0,5957;-1,8296;-128,8225;7,7834;61,8185;-5,42;-12,94;-170,81;1;;;;
36217;N/A;0;0;0;0;0;463,86;958,76;31,09;0;0;0;0;0;0;1,763;0,0571;7,4019;0,2212;-0,0698;0,936;-1,6945;-1,2335;1,5241;-129,1156;8,6017;62,6282;-5,41;-12,91;-170,86;1;;;;
36317;N/A;0;0;0;0;0;463,86;958,76;31,09;0;0;0;0;0;0;1,7454;0,0571;7,3741;0,2202;-0,0513;0,9424;2,2079;-1,4774;0,7314;-129,3874;9,3602;62,6753;-5,42;-12,92;-170,92;1;;;;
36417;N/A;0;0;0;0;0;463,86;958,76;31,09;0;0;0;0;0;0;1,7176;0,0571;7,4087;0,2144;-0,0557;0,9561;-0,475;1,7543;0,3046;-128,4183;8,03;62,4534;-5,38;-12,97;-170,94;1;;;;
36517;N/A;0;0;0;0;0;463,86;958,76;31,09;0;0;0;0;0;0;1,7631;0,0571;7,4258;0,2324;-0,0591;0,9517;-1,9384;-1,2945;1,3412;-128,8062;9,3085;61,8984;-5,34;-12,98;-171,01;1;;;;
36669;N/A;0;0;0;0;0;464,2;958,72;31,09;0;0;0;0;0;0;1,7515;0,0571;7,4109;0,2305;-0,061;0,9492;0,3787;-1,7823;0,7924;-128,9782;8,0219;62,4676;-5,34;-13,01;-171,09;1;;;;
36717;N/A;0;0;0;0;0;464,2;958,72;31,09;0;0;0;0;0;0;1,7425;0,0571;7,443;0,2207;-0,0522;0,96;0,5006;1,3884;2,4387;-128,1211;7,5929;61,6637;-5,32;-13,08;-171,15;1;;;;
36817;N/A;0;0;0;0;0;464,2;958,72;31,09;0;0;0;0;0;0;1,7129;0,0571;7,4513;0,2095;-0,0557;0,9546;0,3177;-0,9287;-0,1832;-129,0932;9,3244;62,1597;-5,27;-13,13;-171,15;1;;;;
36917;N/A;0;0;0;0;0;464,2;958,72;31,09;0;0;0;0;0;0;1,7334;0,0571;7,4599;0,231;-0,0527;0,9541;0,1957;0,3518;-0,5491;-129,0872;8,5219;61,6114;-5,17;-13,18;-171,22;1;;;;
37017;N/A;0;0;0;0;0;464,2;958,72;31,09;0;0;0;0;0;0;1,7454;0,0571;7,4467;0,2241;-0,0527;0,9492;-1,4506;-2,2091;2,4997;-129,1095;7,7992;62,0799;-5,07;-13,21;-171,38;1;;;;
37169;N/A;0;0;0;0;0;463,86;958,76;31,1;0;0;0;0;0;0;1,7539;0,0571;7,4515;0,2236;-0,0723;0,9448;-1,0238;-0,8677;0,5485;-128,4061;9,1739;62,5133;-5,07;-13,24;-171,47;1;;;;
37217;N/A;0;0;0;0;0;463,86;958,76;31,1;0;0;0;0;0;0;1,7126;0,0571;7,4268;0,21;-0,0596;0,9448;-1,0238;-0,014;1,646;-128,6972;8,8085;62,7547;-5,13;-13,28;-171,5;1;;;;
37317;N/A;0;0;0;0;0;463,86;958,76;31,1;0;0;0;0;0;0;1,7473;0,0571;7,432;0,2275;-0,064;0,9463;0,2567;-0,9287;-0,1832;-127,7027;7,7997;61,7901;-5,18;-13,3;-171,5;1;;;;
37417;N/A;0;0;0;0;0;463,86;958,76;31,1;0;0;0;0;0;0;1,7641;0,0571;7,4427;0,2295;-0,0469;0,9487;-0,597;-0,5628;-2,0735;-129,1024;7,7793;61,8257;-5,17;-13,35;-171,53;1;;;;
37517;N/A;0;0;0;0;0;463,86;958,76;31,1;0;0;0;0;0;0;1,7267;0,0571;7,4367;0,2212;-0,0601;0,9463;-1,2677;-3,6726;1,768;-129,3966;7,8151;62,3412;-5,12;-13,43;-171,62;1;;;;
37669;N/A;0;0;0;0;0;463,39;958,82;31,11;0;0;0;0;0;0;1,7213;0,0571;7,3936;0,2153;-0,0518;0,9497;0,3787;1,0226;1,2802;-128,5659;9,0311;63,1424;-5,11;-13,52;-171,67;1;;;;
37717;N/A;0;0;0;0;0;463,39;958,82;31,11;0;0;0;0;0;0;1,6883;0,0571;7,4366;0,2095;-0,0522;0,9619;-1,2067;0,9616;0,9143;-129,2612;8,419;62,7489;-5,11;-13,55;-171,71;1;;;;
37817;N/A;0;0;0;0;0;463,39;958,82;31,11;0;0;0;0;0;0;1,7031;0,0571;7,4089;0,2251;-0,061;0,9443;-0,1701;1,0835;0,4265;-129,2459;9,1617;62,5346;-5,12;-13,47;-171,71;1;;;;
37917;N/A;0;0;0;0;0;463,39;958,82;31,11;0;0;0;0;0;0;1,7115;0,0571;7,4025;0,2173;-0,0664;0,9502;-0,8409;-0,014;-1,4637;-129,2216;8,7005;61,4978;-5,14;-13,36;-171,72;1;;;;
38017;N/A;0;0;0;0;0;463,39;958,82;31,11;0;0;0;0;0;0;1,7721;0,0571;7,4219;0,2334;-0,0718;0,9541;-2,4262;-0,8067;-0,5491;-128,8357;8,6058;62,6211;-5,14;-13,3;-171,84;1;;;;
38280;N/A;0;0;0;0;0;463,15;958,84;31,11;0;0;0;0;0;0;1,7304;0,0571;7,427;0,2119;-0,0552;0,9546;-1,0238;-1,4774;-0,671;-128,2523;10,1192;62,4325;-5,28;-13,42;-172,04;1;;;;
38328;N/A;0;0;0;0;0;463,15;958,84;31,11;0;0;0;0;0;0;1,7004;0,0571;7,4283;0,2114;-0,0591;0,9512;-0,7799;-0,2579;0,4265;-129,5442;8,8162;63,0302;-5,29;-13,44;-172,06;1;;;;
38428;N/A;0;0;0;0;0;463,15;958,84;31,11;0;0;0;0;0;0;1,7136;0,0571;7,424;0,228;-0,0474;0,9478;-0,9628;0,5348;-0,854;-128,4112;8,0101;62,1992;-5,33;-13,5;-172,08;1;;;;
38528;N/A;0;0;0;0;0;463,15;958,84;31,11;0;0;0;0;0;0;1,7069;0,0571;7,4561;0,2153;-0,0649;0,9604;-0,536;0,8396;-0,0613;-128,8275;9,3684;62,6611;-5,37;-13,52;-172,11;1;;;;
38628;N/A;0;0;0;0;0;463,15;958,84;31,11;0;0;0;0;0;0;1,705;0,0571;7,438;0,2227;-0,0513;0,9517;-0,353;-1,2335;1,5851;-128,6911;8,006;62,2063;-5,36;-13,48;-172,16;1;;;;
38780;N/A;0;0;0;0;0;463,39;958,82;31,1;0;0;0;0;0;0;1,7087;0,0571;7,424;0,2188;-0,0596;0,9458;0,9274;1,2055;1,0973;-129,3844;8,959;62,4011;-5,36;-13,45;-172,16;1;;;;
38828;N/A;0;0;0;0;0;463,39;958,82;31,1;0;0;0;0;0;0;1,6967;0,0571;7,4406;0,2153;-0,0581;0,9561;-0,353;-1,0506;-0,793;-128,97;8,7844;62,5076;-5,38;-13,43;-172,12;1;;;;
38928;N/A;0;0;0;0;0;463,39;958,82;31,1;0;0;0;0;0;0;1,7602;0,0571;7,3844;0,2305;-0,0649;0,9395;-0,7189;-2,2091;-1,4027;-128,683;8,7686;62,2462;-5,39;-13,45;-172,13;1;;;;
39028;N/A;0;0;0;0;0;463,39;958,82;31,1;0;0;0;0;0;0;1,7595;0,0571;7,4339;0,2251;-0,0649;0,9595;1,0494;-2,8799;-0,6101;-128,6911;8,006;62,2063;-5,41;-13,57;-172,21;1;;;;
39128;N/A;0;0;0;0;0;463,39;958,82;31,1;0;0;0;0;0;0;1,7861;0,0571;7,4175;0,2329;-0,0464;0,9521;0,7445;-0,7457;-0,3662;-129,537;8,7962;62,776;-5,39;-13,71;-172,31;1;;;;
39280;N/A;0;0;0;0;0;463,39;958,82;31,09;0;0;0;0;0;0;1,75;0,0571;7,3896;0,2183;-0,0518;0,9399;-1,1457;1,6323;0,1216;-128,9517;9,1258;62,0191;-5,33;-13,8;-172,42;1;;;;
39328;N/A;0;0;0;0;0;463,39;958,82;31,09;0;0;0;0;0;0;1,7673;0,0571;7,3936;0,2295;-0,0708;0,9482;-1,6945;0,5957;-0,9759;-128,3989;9,1539;62,2591;-5,29;-13,81;-172,51;1;;;;
39428;N/A;0;0;0;0;0;463,39;958,82;31,09;0;0;0;0;0;0;1,7445;0,0571;7,469;0,2202;-0,0444;0,9634;-1,5726;-2,0872;0,7314;-127,9745;8,5582;61,8371;-5,32;-13,76;-172,55;1;;;;
39528;N/A;0;0;0;0;0;463,39;958,82;31,09;0;0;0;0;0;0;1,7199;0,0571;7,484;0,2197;-0,061;0,959;1,2323;1,6933;0,6095;-129,3925;8,1964;62,3612;-5,39;-13,73;-172,57;1;;;;
39628;N/A;0;0;0;0;0;463,39;958,82;31,09;0;0;0;0;0;0;1,7476;0,0571;7,4765;0,2261;-0,0664;0,957;-0,6579;-0,3799;0,1826;-128,5273;8,5301;61,5971;-5,4;-13,64;-172,66;1;;;;
39780;N/A;0;0;0;0;0;463,3;958,83;31,09;0;0;0;0;0;0;1,7682;0,0571;7,4346;0,2295;-0,0684;0,9468;1,6591;-1,3555;-0,4271;-129,2581;8,0178;62,4747;-5,37;-13,58;-172,76;1;;;;
39828;N/A;0;0;0;0;0;463,3;958,83;31,09;0;0;0;0;0;0;1,7657;0,0571;7,4466;0,2246;-0,0596;0,9556;0,3787;0,4128;-0,3662;-129,3813;8,5577;62,1269;-5,3;-13,6;-172,83;1;;;;
39928;N/A;0;0;0;0;0;463,3;958,83;31,09;0;0;0;0;0;0;1,7889;0,0571;7,4891;0,2349;-0,0498;0,9658;-0,475;-0,5628;0,6704;-128,5497;7,8074;62,0657;-5,19;-13,62;-172,86;1;;;;
40028;N/A;0;0;0;0;0;463,3;958,83;31,09;0;0;0;0;0;0;1,7646;0,0571;7,4641;0,2173;-0,0586;0,9458;-1,1457;-0,014;2,6826;-128,8225;7,7834;61,8185;-5,13;-13,6;-172,84;1;;;;
40128;N/A;0;0;0;0;0;463,3;958,83;31,09;0;0;0;0;0;0;1,702;0,0571;7,404;0,2065;-0,0527;0,9429;2,6348;-1,2335;0,3655;-128,5425;7,7874;61,8114;-5,12;-13,54;-172,78;1;;;;
40390;N/A;0;0;0;0;0;463,3;958,83;31,09;0;0;0;0;0;0;1,739;0,0571;7,3757;0,2266;-0,0576;0,9385;0,3177;-1,3555;1,0363;-129,0984;8,1606;61,8456;-5,03;-13,5;-172,89;1;;;;
40437;N/A;0;0;0;0;0;463,3;958,83;31,09;0;0;0;0;0;0;1,7179;0,0571;7,3982;0,2153;-0,0522;0,9531;-0,353;3,4006;-1,2808;-128,5456;8,1887;62,0856;-5,01;-13,47;-172,94;1;;;;
40537;N/A;0;0;0;0;0;463,3;958,83;31,09;0;0;0;0;0;0;1,7499;0,0571;7,3888;0,231;-0,0571;0,9429;0,9884;-1,4165;0,3655;-129,3833;9,7415;62,6952;-4,97;-13,37;-173,09;1;;;;
40637;N/A;0;0;0;0;0;463,3;958,83;31,09;0;0;0;0;0;0;1,7533;0,0571;7,3484;0,2295;-0,0605;0,9365;-3,097;0,1079;2,0729;-128,116;8,7568;61,9778;-4,94;-13,31;-173,21;1;;;;
40737;N/A;0;0;0;0;0;463,3;958,83;31,09;0;0;0;0;0;0;1,7269;0,0571;7,3524;0,2217;-0,0586;0,9419;-0,475;1,1445;2,2558;-129,7967;7,9497;61,7263;-5;-13,29;-173,21;1;;;;
40889;N/A;0;0;0;0;0;463,39;958,82;31,08;0;0;0;0;0;0;1,7497;0,0571;7,3906;0,228;-0,0571;0,9487;-1,4506;0,047;-0,1223;-128,9629;8,7645;62,2533;-5,05;-13,28;-173,14;1;;;;
40937;N/A;0;0;0;0;0;463,39;958,82;31,08;0;0;0;0;0;0;1,7211;0,0571;7,3857;0,2139;-0,0576;0,9453;0,2567;0,7787;0,3046;-129,3773;8,939;62,1469;-5,09;-13,26;-173,09;1;;;;
41037;N/A;0;0;0;0;0;463,39;958,82;31,08;0;0;0;0;0;0;1,7364;0,0571;7,4134;0,2207;-0,0601;0,9561;-1,2067;0,1079;-1,5857;-129,1136;7,4179;62,0599;-5,09;-13,25;-173,09;1;;;;
41137;N/A;0;0;0;0;0;463,39;958,82;31,08;0;0;0;0;0;0;1,7682;0,0571;7,4474;0,23;-0,0571;0,9609;-1,0238;0,2909;0,4265;-129,5045;9,0977;61,7791;-5,05;-13,25;-173,14;1;;;;
41237;N/A;0;0;0;0;0;463,39;958,82;31,08;0;0;0;0;0;0;1,7112;0,0571;7,4091;0,207;-0,0591;0,9409;-1,0238;-0,5628;4,0851;-129,1055;8,1805;62,0998;-5,04;-13,21;-173,16;1;;;;
41389;N/A;0;0;0;0;0;463,39;958,82;31,08;0;0;0;0;0;0;1,7214;0,0571;7,4529;0,2285;-0,0513;0,9604;-0,2311;-0,4409;0,9753;-128,8031;8,9073;61,6242;-5,09;-13,15;-173,11;1;;;;
41437;N/A;0;0;0;0;0;463,39;958,82;31,08;0;0;0;0;0;0;1,7545;0,0571;7,4436;0,2319;-0,042;0,9502;-1,2677;-0,014;-0,671;-129,6714;8,9749;62,6624;-5,13;-13,1;-173,09;1;;;;
41537;N/A;0;0;0;0;0;463,39;958,82;31,08;0;0;0;0;0;0;1,7802;0,0571;7,4129;0,229;-0,064;0,9404;-0,2921;-1,2945;2,0119;-128,4071;8,3914;62,2192;-5,15;-13,12;-173,07;1;;;;
41637;N/A;0;0;0;0;0;463,39;958,82;31,08;0;0;0;0;0;0;1,7503;0,0571;7,3933;0,2173;-0,0508;0,9409;-0,9628;-3,3067;3,1704;-129,3641;8,1166;61,3443;-5,18;-13,2;-172,96;1;;;;
41737;N/A;0;0;0;0;0;463,39;958,82;31,08;0;0;0;0;0;0;1,7655;0,0571;7,4242;0,2295;-0,0571;0,9561;-0,536;-0,075;-0,2442;-129,3783;8,1565;61,8527;-5,21;-13,28;-172,82;1;;;;
41889;N/A;0;0;0;0;0;463,52;958,8;31,09;0;0;0;0;0;0;1,7015;0,0571;7,4331;0,2124;-0,063;0,9536;-1,4506;-1,5384;1,5241;-128,8133;9,3285;62,1526;-5,2;-13,28;-172,8;1;;;;
41937;N/A;0;0;0;0;0;463,52;958,8;31,09;0;0;0;0;0;0;1,7233;0,0571;7,4441;0,2261;-0,0649;0,9551;0,1957;0,8396;-1,0369;-129,2256;8,3192;61,4778;-5,21;-13,26;-172,82;1;;;;
42037;N/A;0;0;0;0;0;463,52;958,8;31,09;0;0;0;0;0;0;1,7141;0,0571;7,4343;0,2124;-0,0464;0,9541;0,4396;1,0226;4,0851;-128,8398;8,2245;62,6012;-5,2;-13,2;-172,87;1;;;;
42137;N/A;0;0;0;0;0;463,52;958,8;31,09;0;0;0;0;0;0;1,7414;0,0571;7,4708;0,2246;-0,0591;0,9497;0,0128;1,3274;-0,2442;-128,1414;8,4354;62,7205;-5,19;-13,12;-172,82;1;;;;
42237;N/A;0;0;0;0;0;463,52;958,8;31,09;0;0;0;0;0;0;1,7224;0,0571;7,4255;0,2163;-0,0669;0,9487;-1,1457;-0,9896;1,1582;-129,2622;7,6365;62,4548;-5,21;-13,1;-172,7;1;;;;
42489;N/A;0;0;0;0;0;463,52;958,8;31,1;0;0;0;0;0;0;1,7492;0,0571;7,3958;0,2217;-0,0527;0,9507;-0,2311;-0,4409;0,6704;-128,5374;8,9513;62,1255;-5,22;-13,11;-172,8;1;;;;
42537;N/A;0;0;0;0;0;463,52;958,8;31,1;0;0;0;0;0;0;1,7869;0,0571;7,3706;0,2363;-0,0596;0,939;1,2933;1,3274;-0,854;-129,531;7,9937;62,2276;-5,19;-13,09;-172,84;1;;;;
42637;N/A;0;0;0;0;0;463,52;958,8;31,1;0;0;0;0;0;0;1,7609;0,0571;7,3889;0,2188;-0,0562;0,9492;-1,9994;-1,0506;4,146;-129,082;9,6857;61,9255;-5,15;-13,04;-172,88;1;;;;
42737;N/A;0;0;0;0;0;463,52;958,8;31,1;0;0;0;0;0;0;1,7836;0,0571;7,4089;0,2271;-0,041;0,9492;-0,2311;-0,8677;-2,0735;-129,2185;8,2993;61,2236;-5,2;-13,02;-172,77;1;;;;
42837;N/A;0;0;0;0;0;463,52;958,8;31,1;0;0;0;0;0;0;1,7649;0,0571;7,4215;0,2285;-0,0444;0,9512;0,3787;2,7299;-1,1588;-129,0861;9,3044;61,9055;-5,22;-13,03;-172,76;1;;;;
42989;N/A;0;0;0;0;0;463,52;958,8;31,11;0;0;0;0;0;0;1,7067;0,0571;7,3804;0,2095;-0,0615;0,9375;-2,4872;0,9616;5,3655;-129,3529;8,4779;61,11;-5,12;-12,92;-172,9;1;;;;
43037;N/A;0;0;0;0;0;463,52;958,8;31,11;0;0;0;0;0;0;1,7198;0,0571;7,3684;0,2236;-0,0601;0,9419;0,1348;0,4738;-0,6101;-128,5598;8,2286;62,5941;-5,07;-12,77;-172,94;1;;;;
43137;N/A;0;0;0;0;0;463,52;958,8;31,11;0;0;0;0;0;0;1,7274;0,0571;7,3785;0,2192;-0,061;0,9478;0,0128;0,7177;-1,0369;-128,6931;9,1898;62,7746;-5,04;-12,63;-172,92;1;;;;
43237;N/A;0;0;0;0;0;463,52;958,8;31,11;0;0;0;0;0;0;1,774;0,0571;7,4281;0,2324;-0,0659;0,9619;-1,2677;-0,5628;-3,5369;-128,8316;8,9871;62,6411;-4,99;-12,55;-172,96;1;;;;
43337;N/A;0;0;0;0;0;463,52;958,8;31,11;0;0;0;0;0;0;1,7846;0,0571;7,4204;0,2266;-0,0483;0,9507;-1,3287;0,7787;2,6216;-129,2489;9,5629;62,8088;-4,98;-12,58;-173,09;1;;;;
43489;N/A;0;0;0;0;0;463,52;958,8;31,11;0;0;0;0;0;0;1,7162;0,0571;7,4569;0,2139;-0,0483;0,9575;-0,2311;-0,5018;0,3655;-129,2347;9,523;62,3004;-5,01;-12,57;-173,13;1;;;;
43537;N/A;0;0;0;0;0;463,52;958,8;31,11;0;0;0;0;0;0;1,7365;0,0571;7,4119;0,2271;-0,0361;0,9385;-0,475;-0,197;2,6216;-128,97;8,7844;62,5076;-5,07;-12,55;-173,1;1;;;;
43637;N/A;0;0;0;0;0;463,52;958,8;31,11;0;0;0;0;0;0;1,7662;0,0571;7,4091;0,2266;-0,0571;0,9526;-0,475;0,4738;2,4997;-128,9436;9,8884;62,059;-5,07;-12,53;-172,99;1;;;;
43737;N/A;0;0;0;0;0;463,52;958,8;31,11;0;0;0;0;0;0;1,7735;0,0571;7,4197;0,2251;-0,0581;0,957;-1,9994;-1,0506;2,8046;-129,0994;7,378;61,5515;-5,03;-12,52;-172,8;1;;;;
43837;N/A;0;0;0;0;0;463,52;958,8;31,11;0;0;0;0;0;0;1,7634;0,0571;7,4276;0,2256;-0,0723;0,9521;0,3177;-1,2945;1,707;-128,8062;9,3085;61,8984;-5,07;-12,55;-172,57;1;;;;
43989;N/A;0;0;0;0;0;463,52;958,8;31,11;0;0;0;0;0;0;1,7233;0,0571;7,4128;0,2144;-0,0317;0,9458;-0,353;-0,6238;-0,732;-128,8305;9,7697;62,9352;-5,12;-12,64;-172,43;1;;;;
44037;N/A;0;0;0;0;0;463,52;958,8;31,11;0;0;0;0;0;0;1,7127;0,0571;7,3883;0,2173;-0,0557;0,9409;0,1348;-1,1116;-0,3662;-129,2235;9,8843;62,0661;-5,09;-12,73;-172,47;1;;;;
44137;N/A;0;0;0;0;0;463,52;958,8;31,11;0;0;0;0;0;0;1,8006;0,0571;7,4698;0,2456;-0,0615;0,9707;-1,6335;-0,3189;1,2802;-128,8296;7,8033;62,0728;-5,03;-12,83;-172,48;1;;;;
44237;N/A;0;0;0;0;0;463,52;958,8;31,11;0;0;0;0;0;0;1,798;0,0571;7,4638;0,2305;-0,0596;0,9482;-1,3896;-1,5384;-1,4637;-129,5299;8,7763;62,5218;-5,01;-12,92;-172,43;1;;;;
44337;N/A;0;0;0;0;0;463,52;958,8;31,11;0;0;0;0;0;0;1,7957;0,0571;7,4241;0,228;-0,061;0,9419;-3,2189;-0,8067;3,4143;-129,5157;8,7364;62,0133;-5,06;-13,03;-172,43;1;;;;
44699;N/A;0;0;0;0;0;463,52;958,8;31,12;0;0;0;0;0;0;1,7678;0,0571;7,4108;0,2217;-0,0708;0,9453;-1,3896;-0,6848;1,707;-129,5228;8,7563;62,2676;-5,35;-13,39;-172,42;1;;;;
44746;N/A;0;0;0;0;0;463,52;958,8;31,12;0;0;0;0;0;0;1,708;0,0571;7,4156;0,2051;-0,0747;0,9507;-0,6579;1,6323;2,0729;-128,8316;8,9871;62,6411;-5,36;-13,39;-172,42;1;;;;
44846;N/A;0;0;0;0;0;463,52;958,8;31,12;0;0;0;0;0;0;1,7257;0,0571;7,4269;0,2227;-0,0669;0,9502;-0,536;0,1079;0,1216;-129,1024;7,7793;61,8257;-5,37;-13,34;-172,43;1;;;;
44946;N/A;0;0;0;0;0;463,52;958,8;31,12;0;0;0;0;0;0;1,6948;0,0571;7,4057;0,2178;-0,0581;0,9541;0,0738;1,9982;-2,2564;-128,9406;9,4871;61,7848;-5,36;-13,27;-172,48;1;;;;
45046;N/A;0;0;0;0;0;463,52;958,8;31,12;0;0;0;0;0;0;1,6629;0,0571;7,4486;0,2124;-0,0566;0,9644;-1,1457;1,7543;-0,1223;-129,1014;8,5618;62,1198;-5,33;-13,18;-172,6;1;;;;
45198;N/A;0;0;0;0;0;463,69;958,78;31,12;0;0;0;0;0;0;1,6915;0,0571;7,4368;0,2261;-0,0601;0,9556;-0,8409;0,9616;0,3046;-128,4071;8,3914;62,2192;-5,33;-13,1;-172,69;1;;;;
45246;N/A;0;0;0;0;0;463,69;958,78;31,12;0;0;0;0;0;0;1,7379;0,0571;7,4381;0,2334;-0,0605;0,9521;-1,6335;0,1079;-0,9759;-129,2368;7,9579;61,7121;-5,38;-13,04;-172,7;1;;;;
45346;N/A;0;0;0;0;0;463,69;958,78;31,12;0;0;0;0;0;0;1,7508;0,0571;7,3898;0,2266;-0,0615;0,939;0,8055;-0,5018;0,7314;-128,9629;8,7645;62,2533;-5,44;-13,01;-172,69;1;;;;
45446;N/A;0;0;0;0;0;463,69;958,78;31,12;0;0;0;0;0;0;1,7343;0,0571;7,4071;0,2144;-0,0635;0,9512;-1,0848;0,4738;-0,4881;-129,2562;6,834;61,9064;-5,46;-13,04;-172,71;1;;;;
45546;N/A;0;0;0;0;0;463,69;958,78;31,12;0;0;0;0;0;0;1,7309;0,0571;7,4316;0,2197;-0,0566;0,9546;-1,0238;-1,8433;3,4143;-128,5639;7,8473;62,5741;-5,44;-13,05;-172,76;1;;;;
45698;N/A;0;0;0;0;0;463,69;958,78;31,12;0;0;0;0;0;0;1,7616;0,0571;7,4652;0,2324;-0,062;0,9619;0,1348;-0,4409;-1,2808;-128,8021;9,6898;61,9184;-5,43;-13,1;-172,69;1;;;;
45746;N/A;0;0;0;0;0;463,69;958,78;31,12;0;0;0;0;0;0;1,7712;0,0571;7,4738;0,228;-0,0562;0,9575;-0,536;1,5713;-1,6466;-128,5354;7,7675;61,5572;-5,39;-13,18;-172,62;1;;;;
45846;N/A;0;0;0;0;0;463,69;958,78;31,12;0;0;0;0;0;0;1,8132;0,0571;7,406;0,2344;-0,0547;0,9409;-1,6945;0,7787;3,6582;-128,8305;9,7697;62,9352;-5,34;-13,24;-172,66;1;;;;
45946;N/A;0;0;0;0;0;463,69;958,78;31,12;0;0;0;0;0;0;1,7577;0,0571;7,438;0,2188;-0,0493;0,9521;-0,1091;1,8152;-0,0003;-128,9629;8,7645;62,2533;-5,35;-13,27;-172,68;1;;;;
46046;N/A;0;0;0;0;0;463,69;958,78;31,12;0;0;0;0;0;0;1,7551;0,0571;7,4285;0,2227;-0,0513;0,9487;0,6226;-0,7457;0,0607;-128,4366;7,6887;62,9419;-5,35;-13,25;-172,7;1;;;;
46198;N/A;0;0;0;0;0;463,69;958,78;31,14;0;0;0;0;0;0;1,7423;0,0571;7,4265;0,2256;-0,0493;0,9517;-0,6579;-1,7823;1,707;-128,8296;7,8033;62,0728;-5,33;-13,23;-172,71;1;;;;
46246;N/A;0;0;0;0;0;463,69;958,78;31,14;0;0;0;0;0;0;1,7547;0,0571;7,4309;0,2271;-0,0532;0,9521;-0,475;2,7299;-0,9759;-127,8472;8,3995;62,2049;-5,33;-13,22;-172,68;1;;;;
46346;N/A;0;0;0;0;0;463,69;958,78;31,14;0;0;0;0;0;0;1,7825;0,0571;7,4229;0,228;-0,062;0,9463;-2,3652;-0,075;-0,3662;-129,0953;7,7593;61,5714;-5,31;-13,23;-172,67;1;;;;
46446;N/A;0;0;0;0;0;463,69;958,78;31,14;0;0;0;0;0;0;1,7103;0,0571;7,4145;0,2129;-0,0508;0,9492;-1,4506;2,6689;0,6095;-128,8408;7,442;62,307;-5,32;-13,26;-172,74;1;;;;
46546;N/A;0;0;0;0;0;463,69;958,78;31,14;0;0;0;0;0;0;1,7591;0,0571;7,4696;0,2251;-0,0508;0,9604;0,9884;0,2909;1,9509;-128,4315;8,8525;63,256;-5,36;-13,21;-172,85;1;;;;
46816;N/A;0;0;0;0;0;463,79;958,77;31,14;0;0;0;0;0;0;1,7106;0,0571;7,4657;0,2163;-0,0542;0,958;1,5982;-0,9896;-4,7564;-128,7909;10,0511;61,6841;-5,42;-13,09;-172,77;1;;;;
46863;N/A;0;0;0;0;0;463,79;958,77;31,14;0;0;0;0;0;0;1,7225;0,0571;7,4454;0,2236;-0,0479;0,9478;-2,7311;2,486;-3,293;-128,967;8,3832;62,2334;-5,41;-13,06;-172,79;1;;;;
46963;N/A;0;0;0;0;0;463,79;958,77;31,14;0;0;0;0;0;0;1,7523;0,0571;7,4161;0,2231;-0,0625;0,9487;1,0494;-0,014;3,5973;-129,1085;8,5818;62,374;-5,4;-13,02;-172,97;1;;;;
47063;N/A;0;0;0;0;0;463,79;958,77;31,14;0;0;0;0;0;0;1,7437;0,0571;7,4461;0,2241;-0,0649;0,9683;0,0128;-0,9896;0,3046;-128,8438;7,8432;62,5812;-5,41;-12,97;-173;1;;;;
47163;N/A;0;0;0;0;0;463,79;958,77;31,14;0;0;0;0;0;0;1,7929;0,0571;7,3927;0,2437;-0,0557;0,9424;-2,3043;-1,6604;-3,354;-128,8337;7,422;62,0528;-5,43;-12,97;-172,97;1;;;;
47315;N/A;0;0;0;0;0;463,69;958,78;31,14;0;0;0;0;0;0;1,7759;0,0571;7,3957;0,2324;-0,0493;0,9458;-1,1457;0,2909;2,5607;-128,403;8,7726;62,2391;-5,49;-13,07;-173,09;1;;;;
47363;N/A;0;0;0;0;0;463,69;958,78;31,14;0;0;0;0;0;0;1,7122;0,0571;7,418;0,2046;-0,0776;0,9551;-1,5726;-0,8067;-2,3174;-129,1055;8,1805;62,0998;-5,58;-13,17;-173,19;1;;;;
47463;N/A;0;0;0;0;0;463,69;958,78;31,14;0;0;0;0;0;0;1,7014;0,0571;7,3864;0,2168;-0,0425;0,936;-1,6335;2,2421;-3,7808;-129,3589;9,2804;61,6584;-5,62;-13,22;-173,33;1;;;;
47563;N/A;0;0;0;0;0;463,69;958,78;31,14;0;0;0;0;0;0;1,7398;0,0571;7,4143;0,2207;-0,0537;0,9487;-3,097;-1,2945;1,9509;-129,1014;8,5618;62,1198;-5,55;-13,16;-173,6;1;;;;
47663;N/A;0;0;0;0;0;463,69;958,78;31,14;0;0;0;0;0;0;1,7841;0,0571;7,3973;0,2324;-0,0586;0,9492;-0,7189;1,0226;4,268;-128,5456;8,1887;62,0856;-5,55;-13,09;-173,7;1;;;;
47815;N/A;0;0;0;0;0;463,69;958,78;31,15;0;0;0;0;0;0;1,7592;0,0571;7,3944;0,2241;-0,0488;0,9395;-1,0238;-1,2335;-1,4637;-129,2368;7,9579;61,7121;-5,6;-13,02;-173,61;1;;;;
47863;N/A;0;0;0;0;0;463,69;958,78;31,15;0;0;0;0;0;0;1,7537;0,0571;7,417;0,2227;-0,0518;0,9551;-3,036;-0,197;1,0973;-128,5323;10,1151;62,4397;-5,6;-12,97;-173,59;1;;;;
47963;N/A;0;0;0;0;0;463,69;958,78;31,15;0;0;0;0;0;0;1,7332;0,0571;7,4402;0,2241;-0,0615;0,9531;-0,9628;-1,5994;1,0363;-127,6935;9,3448;62,1242;-5,63;-12,97;-173,54;1;;;;
48063;N/A;0;0;0;0;0;463,69;958,78;31,15;0;0;0;0;0;0;1,7212;0,0571;7,4423;0,2207;-0,0723;0,9517;-0,2921;0,3518;-1,4637;-130,0807;7,5644;61,7135;-5,64;-13,02;-173,44;1;;;;
48163;N/A;0;0;0;0;0;463,69;958,78;31,15;0;0;0;0;0;0;1,6901;0,0571;7,4447;0,2114;-0,0405;0,9521;-0,0482;-1,2945;-1,8296;-128,5344;8,55;61,8514;-5,55;-13,06;-173,46;1;;;;
48315;N/A;0;0;0;0;0;463,79;958,77;31,15;0;0;0;0;0;0;1,7057;0,0571;7,414;0,2202;-0,0479;0,9434;0,4396;0,9006;1,2802;-128,4132;9,1939;62,7675;-5,42;-13,12;-173,57;1;;;;
48363;N/A;0;0;0;0;0;463,79;958,77;31,15;0;0;0;0;0;0;1,7291;0,0571;7,3877;0,2271;-0,0601;0,9404;-0,8409;-1,9043;-1,7076;-128,9416;8,7046;61,4907;-5,29;-13,19;-173,63;1;;;;
48463;N/A;0;0;0;0;0;463,79;958,77;31,15;0;0;0;0;0;0;1,7113;0,0571;7,3961;0,2197;-0,0532;0,9468;0,9884;0,4738;-0,732;-128,7013;8,4272;62,7347;-5,21;-13,27;-173,69;1;;;;
48563;N/A;0;0;0;0;0;463,79;958,77;31,15;0;0;0;0;0;0;1,7799;0,0571;7,4833;0,2344;-0,0542;0,9702;-0,9628;-0,9896;-1,1588;-128,1282;7,6129;61,9179;-5,15;-13,33;-173,79;1;;;;
48663;N/A;0;0;0;0;0;463,79;958,77;31,15;0;0;0;0;0;0;1,7284;0,0571;7,4917;0,2075;-0,0439;0,9609;-1,2067;-0,197;1,2192;-129,6583;8,1524;61,8598;-5,11;-13,38;-173,89;1;;;;
48914;N/A;0;0;0;0;0;463,79;958,77;31,15;0;0;0;0;0;0;1,7178;0,0571;7,4662;0,2217;-0,0493;0,9536;0,5616;0,7787;-2,4393;-128,2941;8,2726;63,0954;-5,14;-13,4;-173,85;1;;;;
48962;N/A;0;0;0;0;0;463,79;958,77;31,15;0;0;0;0;0;0;1,7261;0,0571;7,4213;0,2231;-0,0581;0,9395;1,4762;-2,453;-1,5247;-129,2439;7,9779;61,9663;-5,12;-13,38;-173,84;1;;;;
49062;N/A;0;0;0;0;0;463,79;958,77;31,15;0;0;0;0;0;0;1,7515;0,0571;7,4156;0,2271;-0,0532;0,9502;-2,914;-2,2091;2,9875;-129,2612;8,419;62,7489;-5,01;-13,4;-173,86;1;;;;
49162;N/A;0;0;0;0;0;463,79;958,77;31,15;0;0;0;0;0;0;1,7128;0,0571;7,4044;0,2192;-0,0566;0,9463;-1,6945;-2,697;1,0973;-129,1085;8,5818;62,374;-5,01;-13,45;-173,82;1;;;;
49262;N/A;0;0;0;0;0;463,79;958,77;31,15;0;0;0;0;0;0;1,7316;0,0571;7,4397;0,2256;-0,0576;0,9526;-1,2067;1,4494;-1,0369;-129,6796;8,2123;62,6225;-5,06;-13,52;-173,8;1;;;;
49414;N/A;0;0;0;0;0;463,86;958,76;31,16;0;0;0;0;0;0;1,7365;0,0571;7,4069;0,2173;-0,0493;0,937;-2,1823;-1,7213;3,4753;-128,3918;9,134;62,0049;-5,07;-13,53;-173,87;1;;;;
49462;N/A;0;0;0;0;0;463,86;958,76;31,16;0;0;0;0;0;0;1,745;0,0571;7,433;0,2251;-0,0566;0,9575;0,5616;-0,2579;-1,7076;-128,6942;8,4072;62,4805;-5,06;-13,56;-173,92;1;;;;
49562;N/A;0;0;0;0;0;463,86;958,76;31,16;0;0;0;0;0;0;1,7632;0,0571;7,4166;0,2241;-0,0552;0,9448;0,4396;-0,014;-2,1954;-129,3732;9,3203;62,1668;-5,02;-13,58;-174;1;;;;
49662;N/A;0;0;0;0;0;463,86;958,76;31,16;0;0;0;0;0;0;1,7215;0,0571;7,4383;0,2158;-0,0474;0,9614;-0,7799;1,5713;1,3412;-129,5239;7,9738;61,9734;-4,94;-13,61;-174,15;1;;;;
49762;N/A;0;0;0;0;0;463,86;958,76;31,16;0;0;0;0;0;0;1,7358;0,0571;7,459;0,2231;-0,0576;0,9614;-1,3896;-0,4409;1,3412;-128,4183;8,03;62,4534;-4,91;-13,55;-174,19;1;;;;
49914;N/A;0;0;0;0;0;463,86;958,76;31,17;0;0;0;0;0;0;1,7398;0,0571;7,4512;0,229;-0,0581;0,957;0,5006;-1,5384;-0,3662;-129,3773;8,939;62,1469;-4,93;-13,49;-174,17;1;;;;
49962;N/A;0;0;0;0;0;463,86;958,76;31,17;0;0;0;0;0;0;1,7631;0,0571;7,4769;0,2305;-0,0522;0,9619;-0,2921;-1,1726;1,5241;-130,0939;8,3868;62,516;-4,95;-13,49;-174,18;1;;;;
50062;N/A;0;0;0;0;0;463,86;958,76;31,17;0;0;0;0;0;0;1,7576;0,0571;7,4465;0,2134;-0,0532;0,9497;0,7445;0,1079;0,8534;-129,1136;7,4179;62,0599;-4,97;-13,54;-174,16;1;;;;
50162;N/A;0;0;0;0;0;463,86;958,76;31,17;0;0;0;0;0;0;1,7306;0,0571;7,4067;0,2246;-0,063;0,9443;0,7445;0,9616;-1,0369;-128,1302;8,7967;62,4862;-4,99;-13,58;-174,12;1;;;;
50262;N/A;0;0;0;0;0;463,86;958,76;31,17;0;0;0;0;0;0;1,7337;0,0571;7,4425;0,2192;-0,064;0,958;-1,9994;0,1079;2,3168;-128,8163;9,7297;62,4268;-4,93;-13,57;-174,12;1;;;;
50414;N/A;0;0;0;0;0;463,79;958,77;31,18;0;0;0;0;0;0;1,7667;0,0571;7,4408;0,2275;-0,0513;0,959;-1,3896;1,4494;2,1338;-128,6983;8,0259;62,4605;-4,9;-13,51;-174,05;1;;;;
50462;N/A;0;0;0;0;0;463,79;958,77;31,18;0;0;0;0;0;0;1,7603;0,0571;7,428;0,2231;-0,0508;0,9478;-1,5116;0,047;0,7924;-129,2622;7,6365;62,4548;-4,93;-13,4;-173,91;1;;;;
50562;N/A;0;0;0;0;0;463,79;958,77;31,18;0;0;0;0;0;0;1,7812;0,0571;7,4203;0,2212;-0,0522;0,9609;-2,4262;-0,3799;-1,7076;-128,8133;9,3285;62,1526;-4,99;-13,29;-173,81;1;;;;
50662;N/A;0;0;0;0;0;463,79;958,77;31,18;0;0;0;0;0;0;1,7959;0,0571;7,4325;0,2285;-0,0503;0,9448;0,7445;-0,136;1,0973;-128,964;7,9819;61,9592;-5,04;-13,3;-173,85;1;;;;
50762;N/A;0;0;0;0;0;463,79;958,77;31,18;0;0;0;0;0;0;1,7935;0,0571;7,4283;0,2256;-0,0615;0,9458;0,5006;-0,5018;1,1582;-128,6931;9,1898;62,7746;-5;-13,33;-173,85;1;;;;
51020;N/A;0;0;0;0;0;463,79;958,77;31,17;0;0;0;0;0;0;1,7352;0,0571;7,4282;0,2109;-0,0415;0,9531;-1,5726;-0,075;4,4509;-128,7013;8,4272;62,7347;-5,02;-13,4;-173,56;1;;;;
51067;N/A;0;0;0;0;0;463,79;958,77;31,17;0;0;0;0;0;0;1,711;0,0571;7,4249;0,2139;-0,0518;0,9497;-1,5726;-1,1116;1,707;-128,1313;8,0141;62,1921;-5,05;-13,41;-173,49;1;;;;
51167;N/A;0;0;0;0;0;463,79;958,77;31,17;0;0;0;0;0;0;1,7149;0,0571;7,3937;0,2271;-0,0625;0,9404;0,8055;1,9982;0,9753;-129,9412;8,5496;62,1411;-5,13;-13,46;-173,32;1;;;;
51267;N/A;0;0;0;0;0;463,79;958,77;31,17;0;0;0;0;0;0;1,6979;0,0571;7,4124;0,2158;-0,0415;0,9585;-0,414;-0,4409;-1,5247;-128,3012;8,2926;63,3496;-5,15;-13,43;-173,23;1;;;;
51367;N/A;0;0;0;0;0;463,79;958,77;31,17;0;0;0;0;0;0;1,765;0,0571;7,4226;0,2329;-0,043;0,9551;-1,0848;0,3518;-0,732;-129,5381;8,0137;62,4819;-5,1;-13,37;-173,27;1;;;;
51519;N/A;0;0;0;0;0;463,86;958,76;31,17;0;0;0;0;0;0;1,7763;0,0571;7,4216;0,2324;-0,0469;0,9482;1,4762;0,7787;2,6216;-129,1095;7,7992;62,0799;-5,06;-13,38;-173,31;1;;;;
51567;N/A;0;0;0;0;0;463,86;958,76;31,17;0;0;0;0;0;0;1,7685;0,0571;7,4203;0,2236;-0,0605;0,9497;-1,6945;0,047;0,9753;-128,6647;9,1099;61,7577;-5,02;-13,38;-173,28;1;;;;
51667;N/A;0;0;0;0;0;463,86;958,76;31,17;0;0;0;0;0;0;1,7795;0,0571;7,3943;0,2295;-0,0576;0,9414;-0,1701;-0,136;0,3046;-129,3671;8,5178;61,6185;-5,03;-13,37;-173,2;1;;;;
51767;N/A;0;0;0;0;0;463,86;958,76;31,17;0;0;0;0;0;0;1,7715;0,0571;7,3735;0,228;-0,0508;0,9448;-0,8409;-0,5018;0,3655;-129,8099;8,7722;62,5289;-5,07;-13,36;-173,17;1;;;;
51867;N/A;0;0;0;0;0;463,86;958,76;31,17;0;0;0;0;0;0;1,7369;0,0571;7,3509;0,2173;-0,062;0,9365;-1,4506;-1,1116;1,2192;-128,97;8,7844;62,5076;-5,09;-13,35;-173,13;1;;;;
52019;N/A;0;0;0;0;0;463,69;958,78;31,16;0;0;0;0;0;0;1,7177;0,0571;7,4008;0,2158;-0,0732;0,9531;0,2567;0,047;-2,7442;-128,4142;8,4113;62,4734;-5,13;-13,34;-173,03;1;;;;
52067;N/A;0;0;0;0;0;463,69;958,78;31,16;0;0;0;0;0;0;1,739;0,0571;7,4144;0,2275;-0,0488;0,9526;0,3787;-0,8067;1,768;-128,97;8,7844;62,5076;-5,13;-13,33;-173,02;1;;;;
52167;N/A;0;0;0;0;0;463,69;958,78;31,16;0;0;0;0;0;0;1,7397;0,0571;7,3859;0,2168;-0,0527;0,9375;-2,0604;-1,7213;3,5363;-129,25;8,7804;62,5147;-5,11;-13,32;-173,01;1;;;;
52287;143725;-21,94156456;-48,95269394;513,7;1;5;463,69;958,78;31,16;0,0001;0;-0,4072;0,0347;0;0,1524;1,7333;0,0571;7,417;0,2251;-0,0601;0,9565;-1,2677;-0,4409;-1,1588;-129,2429;8,7604;62,2605;-5,16;-13,36;-172,89;1;;;;
52367;143725;-21,94156456;-48,95269394;513,7;1;5;463,69;958,78;31,16;0,0003;0;-0,3588;0,0345;0;0,1506;1,7241;0,0571;7,4165;0,2183;-0,0557;0,9502;-0,2311;1,0226;-0,793;-128,8103;8,9272;61,8784;-5,24;-13,39;-172,85;1;;;;
52520;143725;-21,94156456;-48,95269394;513,7;1;5;463,69;958,78;31,17;0,0004;0;-0,3428;0,0351;0;0,1494;1,753;0,0571;7,3702;0,2275;-0,0635;0,9321;-1,5726;-2,2701;0,1826;-128,9741;8,4032;62,4876;-5,26;-13,39;-172,92;1;;;;
52567;143725;-21,94156456;-48,95269394;513,7;1;5;463,69;958,78;31,17;0,0006;0;-0,3343;0,0356;0;0,1497;1,7809;0,0571;7,3929;0,2334;-0,0449;0,9526;-1,8774;0,7787;1,829;-129,2276;9,503;62,0462;-5,33;-13,44;-172,95;1;;;;
52667;143725;-21,94156456;-48,95269394;513,7;1;5;463,69;958,78;31,17;0,0008;0;-0,3289;0,0351;0;0,1503;1,7538;0,0571;7,4381;0,2266;-0,0537;0,9595;-0,1091;-0,2579;-0,0003;-128,571;7,8673;62,8283;-5,44;-13,5;-172,94;1;;;;
52767;143725;-21,94156456;-48,95269394;513,7;1;5;463,69;958,78;31,17;0,001;0;-0,325;0,0353;0;0,1495;1,7671;0,0571;7,4095;0,2236;-0,0527;0,9487;0,1348;-1,1726;1,0973;-130,2283;8,5655;62,4025;-5,5;-13,55;-172,97;1;;;;
52867;143725;-21,94156456;-48,95269394;513,7;1;5;463,69;958,78;31,17;0,0011;0;-0,322;0,0346;0;0,149;1,7318;0,0571;7,3993;0,2139;-0,063;0,9463;-1,5726;-1,0506;2,4387;-128,8214;8,5659;62,1127;-5,47;-13,58;-173;1;;;;
53125;143725;-21,94156456;-48,95269394;513,7;1;5;463,79;958,77;31,17;0,0013;0;-0,3374;0,0347;0;0,1349;1,7368;0,0571;7,4229;0,2222;-0,0532;0,957;0,8055;1,2665;-0,3052;-130,0523;7,4845;60,6966;-5,49;-13,45;-172,93;1;;;;
53171;143725;-21,94156456;-48,95269394;513,7;1;5;463,79;958,77;31,17;0,0015;0;-0,3495;0,0348;0;0,1366;1,738;0,0571;7,4542;0,2227;-0,0522;0,9609;-0,9628;2,2421;0,6095;-129,2429;8,7604;62,2605;-5,47;-13,37;-172,95;1;;;;
53271;143725;-21,94156456;-48,95269394;513,7;1;5;463,79;958,77;31,17;0,0017;0;-0,3593;0,0347;0;0,1379;1,7327;0,0571;7,4682;0,2231;-0,0527;0,9585;0,1957;0,2909;-0,1832;-128,8214;8,5659;62,1127;-5,42;-13,22;-172,98;1;;;;
53371;143725;-21,94156456;-48,95269394;513,7;1;5;463,79;958,77;31,17;0,0018;0;-0,3673;0,0354;0;0,138;1,7688;0,0571;7,422;0,2271;-0,0537;0,9473;-0,7189;1,1445;1,0363;-128,6911;8,006;62,2063;-5,36;-13,14;-173;1;;;;
53471;143725;-21,94156456;-48,95269394;513,7;1;5;463,79;958,77;31,17;0,002;0;-0,3739;0,035;0;0,139;1,7477;0,0571;7,4264;0,2207;-0,0508;0,9541;-2,0604;-2,2091;3,1704;-127,9887;8,5981;62,3456;-5,33;-13,11;-173,03;1;;;;
53624;143725;-21,94156456;-48,95269394;513,7;1;5;463,99;958,75;31,18;0,0022;0;-0,4123;0,0346;0;0,0993;1,7283;0,0571;7,4089;0,2173;-0,0542;0,9409;-0,597;-1,7823;2,1948;-129,3732;9,3203;62,1668;-5,37;-13,12;-172,99;1;;;;
53671;143725;-21,94156456;-48,95269394;513,7;1;5;463,99;958,75;31,18;0,0023;0;-0,4444;0,0341;0;0,1055;1,7047;0,0571;7,4129;0,2134;-0,0591;0,9502;-1,7555;-0,6238;2,2558;-128,2768;7,8314;62,3128;-5,43;-13,16;-172,88;1;;;;
53771;143725;-21,94156456;-48,95269394;513,7;1;5;463,99;958,75;31,18;0,0025;0;-0,4713;0,0345;0;0,1114;1,7251;0,0571;7,4309;0,2295;-0,0581;0,9482;0,0738;2,1201;-5,1832;-129,2287;8,7205;61,752;-5,47;-13,2;-172,81;1;;;;
53871;143725;-21,94156456;-48,95269394;513,7;1;5;463,99;958,75;31,18;0,0027;0;-0,4939;0,0339;0;0,1168;1,6973;0,0571;7,4587;0,2197;-0,0405;0,9561;-3,2189;-1,6604;1,4021;-128,9812;8,4231;62,7418;-5,39;-13,2;-172,97;1;;;;
53971;143725;-21,94156456;-48,95269394;513,7;1;5;463,99;958,75;31,18;0,0029;0;-0,5129;0,0349;0;0,1206;1,7427;0,0571;7,429;0,2319;-0,0664;0,9492;-2,4262;-0,075;2,0119;-129,2358;8,7404;62,0062;-5,38;-13,28;-173,06;1;;;;
54124;143725;-21,94156456;-48,95269394;513,7;1;5;463,79;958,77;31,19;0,003;0;-0,4959;0,0343;0;0,1698;1,7175;0,0571;7,4184;0,2227;-0,0669;0,9468;-2,7311;-0,5628;-0,3662;-128,6983;8,0259;62,4605;-5,46;-13,37;-173;1;;;;
54172;143727;-21,94157028;-48,95269394;517,5;1;5;463,79;958,77;31,19;0,0121;-0,0287;-0,482;0,0348;-0,0002;0,1659;1,736;0,0571;7,4224;0,2266;-0,0493;0,9512;-0,475;0,3518;-0,0613;-128,7135;7,2833;62,6748;-5,52;-13,43;-172,97;1;;;;
54271;143727;-21,94157028;-48,95269394;517,5;1;5;463,79;958,77;31,19;0,0203;-0,0546;-0,4703;0,0358;-0,0002;0,1626;1,7861;0,0571;7,4065;0,2334;-0,0591;0,9473;-0,2311;-0,197;1,829;-129,5411;8,415;62,756;-5,52;-13,44;-173,02;1;;;;
54371;143727;-21,94157028;-48,95269394;517,5;1;5;463,79;958,77;31,19;0,0277;-0,0781;-0,4604;0,0359;-0,0002;0,16;1,7931;0,0571;7,4066;0,2329;-0,0566;0,9482;-0,353;-0,6848;2,8046;-129,9443;8,9508;62,4153;-5,47;-13,45;-173,03;1;;;;
54471;143727;-21,94157028;-48,95269394;517,5;1;5;463,79;958,77;31,19;0,0345;-0,0995;-0,4522;0,0352;-0,0002;0,1584;1,7569;0,0571;7,4366;0,2222;-0,0581;0,9502;0,0738;-0,3799;-1,4027;-128,9711;8,0019;62,2134;-5,43;-13,49;-172,94;1;;;;
54624;143727;-21,94157028;-48,95269394;517,5;1;5;463,79;958,77;31,19;0,0407;-0,1191;-0,4453;0,0358;-0,0002;0,1567;1,7881;0,0571;7,4463;0,231;-0,0601;0,9468;-1,5116;-0,5628;0,0607;-129,5381;8,0137;62,4819;-5,39;-13,52;-172,97;1;;;;
54671;143727;-21,94157028;-48,95269394;517,5;1;5;463,79;958,77;31,19;0,0465;-0,1371;-0,4395;0,0361;-0,0002;0,1547;1,8026;0,0571;7,4275;0,2324;-0,0474;0,9463;0,6226;0,7177;1,4021;-129,2581;8,0178;62,4747;-5,37;-13,53;-173,06;1;;;;
54771;143727;-21,94157028;-48,95269394;517,5;1;5;463,79;958,77;31,19;0,0518;-0,1537;-0,4347;0,0354;-0,0002;0,153;1,766;0,0571;7,4069;0,2124;-0,061;0,9448;0,0738;3,2787;-1,9515;-128,6952;7,6247;62,1863;-5,36;-13,5;-173,11;1;;;;
54871;143727;-21,94157028;-48,95269394;517,5;1;5;463,79;958,77;31,19;0,0567;-0,169;-0,4306;0,0362;-0,0002;0,1517;1,8063;0,0571;7,4005;0,2339;-0,0376;0,9468;-0,536;0,4128;1,1582;-129,1197;8,2205;62,6083;-5,35;-13,39;-173,16;1;;;;
54971;143727;-21,94157028;-48,95269394;517,5;1;5;463,79;958,77;31,19;0,0613;-0,1833;-0,4272;0,0363;-0,0002;0,1514;1,8099;0,0571;7,4326;0,2305;-0,0527;0,957;-0,353;-0,197;2,5607;-129,2368;7,9579;61,7121;-5,3;-13,3;-173,13;1;;;;
55292;143728;-21,941576;-48,9526825;520,4;1;5;463,86;958,76;31,2;0,1083;-0,2228;-0,4359;0,0358;-0,0007;0,1334;1,7476;0,0571;7,4091;0,2192;-0,062;0,9473;-0,6579;-2,514;1,2192;-128,686;9,1698;62,5204;-5,15;-13,31;-173,07;1;;;;
55339;143728;-21,941576;-48,9526825;520,4;1;5;463,86;958,76;31,2;0,1522;-0,2597;-0,4431;0,0354;-0,0007;0,1355;1,7283;0,0571;7,4101;0,2168;-0,04;0,9492;-1,3896;1,3274;3,1704;-129,8363;7,6683;62,9775;-5,13;-13,32;-173,06;1;;;;
55439;143728;-21,941576;-48,9526825;520,4;1;5;463,86;958,76;31,2;0,1931;-0,2942;-0,4492;0,0347;-0,0007;0,1373;1,6975;0,0571;7,4146;0,2114;-0,0601;0,9473;-1,2677;-2,453;-2,1345;-128,858;7,8832;63,0897;-5,17;-13,38;-172,99;1;;;;
55539;143728;-21,941576;-48,9526825;520,4;1;5;463,86;958,76;31,2;0,2316;-0,3265;-0,4542;0,035;-0,0007;0,1388;1,7116;0,0571;7,4195;0,2251;-0,0537;0,9561;0,9274;-0,3189;0,8534;-128,9782;8,0219;62,4676;-5,17;-13,47;-173;1;;;;
55639;143728;-21,941576;-48,9526825;520,4;1;5;463,86;958,76;31,2;0,2677;-0,3569;-0,4585;0,0356;-0,0007;0,1392;1,7387;0,0571;7,3788;0,2217;-0,0718;0,9482;0,5616;1,9372;0,6095;-128,257;7,9722;61,6872;-5,07;-13,52;-173,09;1;;;;
55792;143728;-21,941576;-48,9526825;520,4;1;5;463,99;958,75;31,2;0,3016;-0,3854;-0,4842;0,035;-0,0007;0,1083;1,7084;0,0571;7,3997;0,2202;-0,0474;0,9478;-1,0238;-0,8677;0,7314;-128,8357;8,6058;62,6211;-4,99;-13,49;-173,12;1;;;;
55839;143728;-21,941576;-48,9526825;520,4;1;5;463,99;958,75;31,2;0,3336;-0,4124;-0,5056;0,0351;-0,0007;0,1149;1,7166;0,0571;7,4193;0,2222;-0,0596;0,9546;-0,1091;1,3884;-1,3418;-129,3895;7,7952;62,087;-4,97;-13,43;-173,12;1;;;;
55939;143728;-21,941576;-48,9526825;520,4;1;5;463,99;958,75;31,2;0,3639;-0,4378;-0,5236;0,0361;-0,0007;0,1191;1,764;0,0571;7,374;0,2305;-0,0576;0,9429;0,6226;-3,2457;0,7924;-128,8326;8,2046;62,347;-4,93;-13,36;-173,18;1;;;;
56039;143728;-21,941576;-48,9526825;520,4;1;5;463,99;958,75;31,2;0,3925;-0,4618;-0,5385;0,0355;-0,0007;0,1245;1,7347;0,0571;7,4285;0,2144;-0,0503;0,9648;0,5006;1,2665;-1,1588;-128,1272;8,3954;62,212;-4,86;-13,37;-173,27;1;;;;
56139;143728;-21,941576;-48,9526825;520,4;1;5;463,99;958,75;31,2;0,4196;-0,4846;-0,5511;0,0354;-0,0007;0,1284;1,7291;0,0571;7,4416;0,2163;-0,0601;0,9517;-1,3287;0,2909;-0,5491;-128,1414;8,4354;62,7205;-4,78;-13,33;-173,37;1;;;;
56292;143729;-21,94158745;-48,95270538;517;1;5;463,99;958,75;31,21;0,3768;-0,5407;-0,5613;0,0333;-0,0017;0,1321;1,7314;0,0571;7,459;0,2231;-0,0522;0,9653;-1,0238;0,7177;1,0363;-128,5669;8,2486;62,8483;-4,71;-13,26;-173,51;1;;;;
56339;143729;-21,94158745;-48,95270538;517;1;5;463,99;958,75;31,21;0,3362;-0,594;-0,5698;0,0338;-0,0017;0,1346;1,7572;0,0571;7,4609;0,2305;-0,0508;0,9546;-1,8165;1,0226;-0,9759;-128,3888;8,7327;61,7307;-4,69;-13,21;-173,6;1;;;;
56439;143729;-21,94158745;-48,95270538;517;1;5;463,99;958,75;31,21;0,2975;-0,6447;-0,5769;0,033;-0,0017;0,1362;1,7179;0,0571;7,4393;0,2173;-0,0552;0,9482;-1,8165;-0,9896;-0,4881;-128,5791;7,1047;62,7884;-4,73;-13,12;-173,64;1;;;;
56539;143729;-21,94158745;-48,95270538;517;1;5;463,99;958,75;31,21;0,2606;-0,693;-0,5829;0,0332;-0,0017;0,1374;1,7276;0,0571;7,4134;0,2251;-0,0513;0,9468;-1,0238;2,547;-0,3052;-128,9782;8,0219;62,4676;-4,82;-13,05;-173,65;1;;;;
56639;143729;-21,94158745;-48,95270538;517;1;5;463,99;958,75;31,21;0,2255;-0,7391;-0,5879;0,0336;-0,0017;0,1385;1,7462;0,0571;7,3981;0,2202;-0,0342;0,9507;-1,5116;-1,1726;-0,9149;-128,8337;7,422;62,0528;-4,89;-13;-173,7;1;;;;
56792;143729;-21,94158745;-48,95270538;517;1;5;463,99;958,75;31,22;0,1919;-0,7831;-0,592;0,0341;-0,0017;0,1397;1,7703;0,0571;7,3978;0,2212;-0,0532;0,9497;-1,5116;-0,9287;-0,3052;-128,4142;8,4113;62,4734;-4,93;-13,07;-173,77;1;;;;
56839;143729;-21,94158745;-48,95270538;517;1;5;463,99;958,75;31,22;0,1599;-0,8252;-0,5955;0,0335;-0,0017;0,141;1,7441;0,0571;7,4108;0,2168;-0,0659;0,9521;-1,3287;1,3884;-2,9271;-129,4149;7,4738;62,8297;-4,98;-13,19;-173,82;1;;;;
56939;143729;-21,94158745;-48,95270538;517;1;5;463,99;958,75;31,22;0,1292;-0,8655;-0,5984;0,0332;-0,0017;0,1423;1,7269;0,0571;7,4379;0,2222;-0,0605;0,9585;-0,1701;0,2299;-1,8296;-128,2829;8,6339;62,8611;-4,98;-13,24;-173,91;1;;;;
57039;143729;-21,94158745;-48,95270538;517;1;5;463,99;958,75;31,22;0,0998;-0,9041;-0,6008;0,0333;-0,0017;0,1428;1,7305;0,0571;7,4259;0,2256;-0,0601;0,9458;-1,8774;1,5104;1,8899;-127,7047;8,9835;62,3584;-4,94;-13,2;-174;1;;;;
57139;143729;-21,94158745;-48,95270538;517;1;5;463,99;958,75;31,22;0,0716;-0,9411;-0,6029;0,0328;-0,0017;0,1432;1,7081;0,0571;7,4159;0,2188;-0,062;0,9468;-1,3896;1,9372;0,9753;-129,3854;8,1764;62,107;-4,96;-13,11;-174;1;;;;
57415;143730;-21,94159508;-48,9527092;517,5;1;5;464,2;958,72;31,21;0,0409;-0,9925;-0,6389;0,0346;-0,0025;0,0933;1,8064;0,0571;7,4092;0,2368;-0,0542;0,9551;-1,6945;-1,4165;1,2192;-128,686;9,1698;62,5204;-5,19;-13,14;-173,9;1;;;;
57462;143730;-21,94159508;-48,9527092;517,5;1;5;464,2;958,72;31,21;0,0114;-1,0419;-0,669;0,0352;-0,0025;0,1018;1,837;0,0571;7,403;0,2397;-0,0571;0,9468;0,1348;1,8762;1,0973;-128,97;8,7844;62,5076;-5,23;-13,17;-173,87;1;;;;
57562;143730;-21,94159508;-48,9527092;517,5;1;5;464,2;958,72;31,21;-0,017;-1,0894;-0,6942;0,0351;-0,0025;0,1098;1,8291;0,0571;7,4394;0,2329;-0,0542;0,9565;0,5006;1,2055;0,0607;-129,3701;8,9191;61,8927;-5,28;-13,19;-173,82;1;;;;
57662;143730;-21,94159508;-48,9527092;517,5;1;5;464,2;958,72;31,21;-0,0443;-1,1352;-0,7152;0,035;-0,0025;0,1155;1,8238;0,0571;7,4199;0,2358;-0,0483;0,9438;-0,6579;0,7787;0,7924;-129,2429;8,7604;62,2605;-5,29;-13,15;-173,78;1;;;;
57762;143730;-21,94159508;-48,9527092;517,5;1;5;464,2;958,72;31,21;-0,0706;-1,1792;-0,7328;0,0346;-0,0025;0,121;1,8069;0,0571;7,4431;0,2241;-0,043;0,9639;-1,2067;0,5348;-1,0369;-129,365;10,0829;62,2068;-5,26;-13,14;-173,78;1;;;;
57915;143730;-21,94159508;-48,9527092;517,5;1;5;463,99;958,75;31,24;-0,0959;-1,2217;-0,7132;0,0337;-0,0025;0,1742;1,7626;0,0571;7,3828;0,2188;-0,0596;0,9453;1,7201;-1,6604;0,8534;-129,5086;8,7164;61,7591;-5,18;-13,12;-173,83;1;;;;
57962;143730;-21,94159508;-48,9527092;517,5;1;5;463,99;958,75;31,24;-0,1204;-1,2627;-0,6967;0,0336;-0,0025;0,1705;1,7532;0,0571;7,4319;0,2217;-0,0464;0,9629;-0,414;1,0835;-0,1223;-129,3966;7,8151;62,3412;-5,05;-13,1;-173,84;1;;;;
58062;143730;-21,94159508;-48,9527092;517,5;1;5;463,99;958,75;31,24;-0,144;-1,3022;-0,683;0,0336;-0,0025;0,1665;1,7548;0,0571;7,4323;0,2261;-0,0518;0,9507;0,3177;-0,8677;-1,0979;-128,8204;9,3484;62,4068;-4,94;-13,06;-173,85;1;;;;
58162;143730;-21,94159508;-48,9527092;517,5;1;5;463,99;958,75;31,24;-0,1668;-1,3404;-0,6716;0,0339;-0,0025;0,1637;1,7675;0,0571;7,4565;0,2246;-0,0625;0,9551;-1,9994;-1,1116;1,4021;-128,9802;9,2057;63,036;-4,89;-13,03;-173,89;1;;;;
58262;143731;-21,9416008;-48,95270538;510,3;1;6;463,99;958,75;31,24;-0,1856;-1,3877;-0,6614;0,034;-0,0032;0,1627;1,7618;0,0571;7,5046;0,2261;-0,0566;0,9619;-0,414;0,6567;2,8655;-129,1055;8,1805;62,0998;-4,94;-13,03;-173,87;1;;;;
58415;143731;-21,9416008;-48,95270538;510,3;1;6;464,1;958,73;31,23;-0,2038;-1,4334;-0,6699;0,0332;-0,0031;0,1347;1,7216;0,0571;7,4646;0,2178;-0,0586;0,9526;0,3787;0,2299;-1,2808;-129,8028;8,7522;62,2747;-4,99;-13,03;-173,77;1;;;;
58462;143731;-21,9416008;-48,95270538;510,3;1;6;464,1;958,73;31,23;-0,2215;-1,4776;-0,677;0,034;-0,0031;0,1366;1,7661;0,0571;7,4561;0,2358;-0,0571;0,9517;-0,0482;-0,136;-1,8296;-128,6871;8,3873;62,2263;-4,95;-13,08;-173,76;1;;;;
58562;143731;-21,9416008;-48,95270538;510,3;1;6;464,1;958,73;31,23;-0,2385;-1,5204;-0,683;0,034;-0,0031;0,1376;1,7636;0,0571;7,4245;0,2266;-0,0508;0,9478;0,5616;-0,014;1,2192;-128,287;8,2527;62,8412;-4,86;-13,13;-173,83;1;;;;
58662;143731;-21,9416008;-48,95270538;510,3;1;6;464,1;958,73;31,23;-0,2551;-1,5619;-0,6879;0,0336;-0,0031;0,139;1,7443;0,0571;7,4214;0,2231;-0,0688;0,9458;-3,8287;3,2177;-2,0735;-128,2687;8,594;62,3527;-4,78;-13,17;-173,87;1;;;;
58762;143731;-21,9416008;-48,95270538;510,3;1;6;464,1;958,73;31,23;-0,2711;-1,6022;-0,6921;0,0334;-0,0031;0,1408;1,734;0,0571;7,4523;0,2222;-0,0542;0,9609;-0,9018;0,5348;1,1582;-128,6911;8,006;62,2063;-4,81;-13,11;-173,93;1;;;;
58915;143731;-21,9416008;-48,95270538;510,3;1;6;464,34;958,71;31,23;-0,2867;-1,6412;-0,7355;0,0332;-0,0031;0,0826;1,7212;0,0571;7,4161;0,2168;-0,0513;0,9507;0,3177;0,047;0,4265;-128,8479;7,4619;62,5613;-4,88;-13,02;-173,97;1;;;;
58962;143731;-21,9416008;-48,95270538;510,3;1;6;464,34;958,71;31,23;-0,3018;-1,6791;-0,7718;0,0333;-0,0031;0,0926;1,7299;0,0571;7,392;0,2236;-0,0522;0,9414;0,7445;-1,3555;-0,0003;-128,568;7,466;62,5541;-4,91;-12,97;-173,97;1;;;;
59062;143731;-21,9416008;-48,95270538;510,3;1;6;464,34;958,71;31,23;-0,3165;-1,716;-0,8021;0,0335;-0,0031;0,101;1,7386;0,0571;7,3745;0,2183;-0,0464;0,937;-0,8409;-0,3189;-0,0613;-128,4183;8,03;62,4534;-4,88;-12,97;-173,95;1;;;;
59162;143731;-21,9416008;-48,95270538;510,3;1;6;464,34;958,71;31,23;-0,3307;-1,7518;-0,8275;0,0327;-0,0031;0,1082;1,6984;0,0571;7,3703;0,2124;-0,0488;0,9521;-0,0482;-1,5994;-1,4637;-129,1115;8,983;62,6482;-4,83;-13,02;-173,99;1;;;;
59262;143731;-21,9416008;-48,95270538;510,3;1;6;464,34;958,71;31,23;-0,3446;-1,7866;-0,8486;0,0327;-0,0031;0,1147;1,6961;0,0571;7,3926;0,2139;-0,0435;0,9502;-4,0116;-1,7823;0,7314;-129,6643;8,9549;62,4082;-4,81;-13,07;-174,09;1;;;;
59549;143731;-21,9416008;-48,95270538;510,3;1;6;464,1;958,73;31,23;-0,358;-1,8204;-0,8263;0,0332;-0,0031;0,1784;1,725;0,0571;7,4;0,2236;-0,0679;0,9429;-0,475;1,5104;1,0973;-128,6647;9,1099;61,7577;-5,18;-13,29;-174,13;1;;;;
59596;143731;-21,9416008;-48,95270538;510,3;1;6;464,1;958,73;31,23;-0,3711;-1,8533;-0,8077;0,0337;-0,0031;0,1739;1,7499;0,0571;7,4397;0,2295;-0,0513;0,9614;-0,8409;1,3274;-0,3662;-129,0872;8,5219;61,6114;-5,21;-13,28;-174,14;1;;;;
59696;143731;-21,9416008;-48,95270538;510,3;1;6;464,1;958,73;31,23;-0,3839;-1,8854;-0,7921;0,0331;-0,0031;0,1693;1,72;0,0571;7,437;0,2158;-0,061;0,9517;-0,6579;-1,2945;-0,793;-128,967;8,3832;62,2334;-5,24;-13,21;-174,17;1;;;;
59796;143731;-21,9416008;-48,95270538;510,3;1;6;464,1;958,73;31,23;-0,3963;-1,9167;-0,7791;0,0338;-0,0031;0,165;1,7536;0,0571;7,4073;0,2236;-0,0522;0,9424;-1,7555;2,2421;0,5485;-128,5445;8,9712;62,3798;-5,25;-13,17;-174,19;1;;;;
59896;143731;-21,9416008;-48,95270538;510,3;1;6;464,1;958,73;31,23;-0,4084;-1,9471;-0,7683;0,0334;-0,0031;0,1617;1,7333;0,0571;7,3987;0,2197;-0,0586;0,9468;-0,0482;0,3518;-1,5247;-128,4071;8,3914;62,2192;-5,23;-13,19;-174,22;1;;;;
60049;143731;-21,9416008;-48,95270538;510,3;1;6;464,2;958,72;31,24;-0,4202;-1,9768;-0,7761;0,0338;-0,003;0,1335;1,7507;0,0571;7,3564;0,229;-0,0474;0,9321;-0,2311;-0,5628;0,4265;-128,1241;7,9942;61,9379;-5,16;-13,24;-174,29;1;;;;
60096;143731;-21,9416008;-48,95270538;510,3;1;6;464,2;958,72;31,24;-0,4317;-2,0057;-0,7827;0,0335;-0,003;0,1357;1,7377;0,0571;7,3761;0,2192;-0,0562;0,9502;-2,914;-1,5384;-0,0003;-128,8357;8,6058;62,6211;-5,09;-13,28;-174,37;1;;;;
